"","name","address","rating","lon","lat","subway","subway_dist","busstop","busstop_dist","href"
"1","Мини Лента","Воронцовский бул., 16, корп. 1, Мурино, Россия",4.1,"30.425064","60.061987","Девяткино",NA,"Графская улица",230,"https://yandex.ru/maps/org/mini_lenta/202409340664/"
"2","Мини Лента","Заречная ул., 41, посёлок Парголово, Россия",4.1,"30.342542","60.082017","Парнас",NA,"Улица Фёдора Абрамова",150,"https://yandex.ru/maps/org/mini_lenta/200024241771/"
"3","ВкусВилл","Туристская ул., 24/42, Санкт-Петербург, Россия",4.4,"30.208034","60.000393","Беговая",NA,"Туристская улица",190,"https://yandex.ru/maps/org/vkusvill/196876052833/"
"4","Мини Лента","Туристская ул., 26, стр. 1, Санкт-Петербург, Россия",4.2,"30.208526","60.001828","Беговая",NA,"Туристская улица",42,"https://yandex.ru/maps/org/mini_lenta/27049865707/"
"5","Мини Лента","ул. Маршала Казакова, 58, Санкт-Петербург, Россия",4.3,"30.190556","59.862832","Проспект Ветеранов",NA,"Проспект Кузнецова",130,"https://yandex.ru/maps/org/mini_lenta/52064135438/"
"6","ВкусВилл","Дальневосточный просп., 25, корп. 1, Санкт-Петербург, Россия",4.3,"30.453328","59.904058","Улица Дыбенко",NA,"Улица Антонова-Овсеенко",150,"https://yandex.ru/maps/org/vkusvill/243573731315/"
"7","ВкусВилл","Комендантский просп., 67, Санкт-Петербург, Россия",4.3,"30.225578","60.03771","Комендантский проспект",NA,"Плесецкая улица",80,"https://yandex.ru/maps/org/vkusvill/196267874712/"
"8","ВкусВилл","Богатырский просп., 54/32с3, Санкт-Петербург, Россия",4.3,"30.21098","60.005935","Беговая",NA,"Богатырский проспект",92,"https://yandex.ru/maps/org/vkusvill/231757246658/"
"9","ВкусВилл","Наличная ул., 44, корп. 1, Санкт-Петербург, Россия",3.8,"30.232891","59.952074","Приморская",520,"Универсам",120,"https://yandex.ru/maps/org/vkusvill/73568385201/"
"10","Винлаб","Воронцовский бул., 22, Мурино, Россия",4.4,"30.429554","60.067508","Девяткино",NA,"Воронцовский бульвар",130,"https://yandex.ru/maps/org/vinlab/102887704558/"
"11","Верный","Воронцовский бул., 20, корп. 1, Мурино, Россия",4.1,"30.428556","60.066203","Девяткино",NA,"Воронцовский бульвар",280,"https://yandex.ru/maps/org/verny/65747803155/"
"12","Фасоль","Воронцовский бул., 23/11, Мурино, Россия",4.3,"30.428504","60.068486","Девяткино",NA,"Воронцовский бульвар",170,"https://yandex.ru/maps/org/fasol/12121575606/"
"13","EUROSPAR","просп. Маршака, 3, Санкт-Петербург, Россия",4.9,"30.444864","60.035938","Девяткино",2000,"Проспект Маршака",380,"https://yandex.ru/maps/org/eurospar/101224670692/"
"14","EUROSPAR","Выборгское ш., 15, Санкт-Петербург, Россия",4.9,"30.312662","60.052691","Проспект Просвещения",NA,"Шуваловское кладбище",300,"https://yandex.ru/maps/org/eurospar/64760573151/"
"15","Колхоз","ул. Шувалова, 11, Мурино, Россия",4.4,"30.428128","60.057603","Девяткино",NA,"Петровский бульвар",55,"https://yandex.ru/maps/org/kolkhoz/80177438468/"
"16","Колхоз","бул. Менделеева, 11, корп. 1, Мурино, Россия",4.5,"30.428061","60.052796","Девяткино",910,"ЖК GreenЛандия",120,"https://yandex.ru/maps/org/kolkhoz/158402556681/"
"17","ВкусВилл","ул. Шувалова, 11, Мурино, Россия",4.3,"30.427547","60.056786","Девяткино",NA,"Петровский бульвар",120,"https://yandex.ru/maps/org/vkusvill/89804519158/"
"18","Светофор","Шоссейная ул., 1, посёлок Бугры, Россия • эт. 1",4.4,"30.392361","60.062724","Девяткино",4000,"Гипермаркет Лента",360,"https://yandex.ru/maps/org/svetofor/225399977366/"
"19","ВкусВилл","Учительская ул., 18, корп. 1, Санкт-Петербург, Россия",4.4,"30.405241","60.032218","Гражданский проспект",NA,"Учительская улица",170,"https://yandex.ru/maps/org/vkusvill/210232066747/"
"20","Красный дракон","Комендантский просп., 25, корп. 1, Санкт-Петербург, Россия • 12 мин. от ст. м. Комендантский проспект",4.9,"30.25161","60.015522","Комендантский проспект",880,"Долгоозёрная улица",170,"https://yandex.ru/maps/org/krasny_drakon/84013961511/"
"21","Винлаб","Петровский бул., 2, корп. 1, Мурино, Россия",4.2,"30.438271","60.056439","Девяткино",840,"Петровский бульвар",160,"https://yandex.ru/maps/org/vinlab/156000578985/"
"22","Верный","ул. Шувалова, 19, корп. 1, Мурино, Россия",4,"30.431136","60.061121","Девяткино",NA,"Графская улица",120,"https://yandex.ru/maps/org/verny/91092175614/"
"23","Metro Cash & Carry","просп. Косыгина, 4, Санкт-Петербург, Россия",4.6,"30.456176","59.94083","Ладожская",NA,"Улица Передовиков",690,"https://yandex.ru/maps/org/metro_cash_carry/1073755962/"
"24","Перекрёсток","просп. Науки, 23, Санкт-Петербург, Россия",4.3,"30.40216","60.0109","Академическая",490,"Улица Бутлерова",230,"https://yandex.ru/maps/org/perekryostok/1500815218/"
"25","Кефир","Воронцовский бул., 22, Мурино, Россия",4.1,"30.42907","60.066922","Девяткино",NA,"Воронцовский бульвар",200,"https://yandex.ru/maps/org/kefir/47958525863/"
"26","Колхоз","ул. Фёдора Абрамова, 21, корп. 2, посёлок Парголово, Россия",4.7,"30.34442","60.079315","Парнас",NA,"Улица Фёдора Абрамова,18",130,"https://yandex.ru/maps/org/kolkhoz/1767562746/"
"27","Магазин Купцов Елисеевых","Невский просп., 56, Санкт-Петербург, Россия",5,"30.337991","59.934129","Гостиный двор",270,"Станция метро Гостиный двор",42,"https://yandex.ru/maps/org/magazin_kuptsov_yeliseyevykh/1205135927/"
"28","Градусы","ул. Шоссе в Лаврики, 83, Мурино, Россия",4.4,"30.458302","60.063162","Девяткино",NA,"ЖК Тридевяткино царство",170,"https://yandex.ru/maps/org/gradusy/1737727825/"
"29","Икра и Рыба","Привокзальная площадь, 3И, Мурино, Россия",4.6,"30.444561","60.051301","Девяткино",91,"Станция метро Девяткино",65,"https://yandex.ru/maps/org/ikra_i_ryba/2176535618/"
"30","ВкусВилл","ул. Шувалова, 5, Мурино, Россия",4.3,"30.424609","60.053193","Девяткино",NA,"ЖСК GreenЛандия",69,"https://yandex.ru/maps/org/vkusvill/149670539123/"
"31","Sono Italiano","Большая Зеленина ул., 34, Санкт-Петербург, Россия • Вход с улицы Резная",5,"30.283906","59.964631","Чкаловская",670,"Барочная улица",160,"https://yandex.ru/maps/org/sono_italiano/193672608848/"
"32","Росомаха Корея маркет","Петровский бул., 11, корп. 1, Мурино, Россия",4.1,"30.425926","60.058068","Девяткино",NA,"Петровский бульвар",190,"https://yandex.ru/maps/org/rosomakha_koreya_market/31724296101/"
"33","ИКЕА","Россия, Ленинградская область, Всеволожский район, Бугровское сельское поселение, КАД, 117-й километр, внешнее кольцо, 1 • этаж 1",4.7,"30.379405","60.092636","ТРК Мега-Парнас",420,"ТРК Мега-Парнас",420,"https://yandex.ru/maps/org/ikea/1758833422/"
"34","Llamas Vegan Shop","ул. Пестеля, 11, Санкт-Петербург, Россия • этаж цокольный",4.9,"30.34235","59.942426","Чернышевская",NA,"Моховая улица",230,"https://yandex.ru/maps/org/llamas_vegan_shop/167056436592/"
"35","Nature","Центральная ул., 44, д. Корабсельки, Россия",4.7,"30.411143","60.102096","Корабсельки",340,"Корабсельки",340,"https://yandex.ru/maps/org/nature/183844614534/"
"36","ВкусВилл","просп. Просвещения, 78, Санкт-Петербург, Россия",4.3,"30.403831","60.03927","Гражданский проспект",1000,"Улица Брянцева",150,"https://yandex.ru/maps/org/vkusvill/73400226828/"
"37","Технолог","бул. Менделеева, 9, корп. 1, Мурино, Россия",4.2,"30.42976","60.052582","Девяткино",800,"ЖК GreenЛандия",200,"https://yandex.ru/maps/org/tekhnolog/87686875957/"
"38","ВкусВилл","ул. Аккуратова, 13, Санкт-Петербург, Россия",4.6,"30.310793","60.016186","Удельная",460,"Станция Удельная",110,"https://yandex.ru/maps/org/vkusvill/183524181004/"
"39","Верный","Воронцовский бул., 14, корп. 1, Мурино, Россия",4,"30.424349","60.061071","Девяткино",2000,"Петровский бульвар",200,"https://yandex.ru/maps/org/verny/6959956874/"
"40","Красный дракон","просп. Энгельса, 113, корп. 2, Санкт-Петербург, Россия • 2 минуты от ст. м. Озерки, за (Пактор), ТЦ Бада-Бум",4.8,"30.326668","60.037921","Озерки",400,"Станция метро Озерки",290,"https://yandex.ru/maps/org/krasny_drakon/1035563998/"
"41","Колхоз","просп. Просвещения, 69, Санкт-Петербург, Россия",4.3,"30.397721","60.03951","Гражданский проспект",NA,"Проспект Просвещения",20,"https://yandex.ru/maps/org/kolkhoz/1698292843/"
"42","Супер Лента","ул. Шувалова, 1, Мурино, Россия",4.3,"30.42245","60.050455","Девяткино",NA,"Охтинская аллея",73,"https://yandex.ru/maps/org/super_lenta/1774377395/"
"43","Колхоз","Европейский просп., 8, Кудрово, Россия",4.9,"30.512675","59.900875","Улица Дыбенко",NA,"Венская улица",68,"https://yandex.ru/maps/org/kolkhoz/115089424766/"
"44","Градусы","бул. Менделеева, 7, Мурино, Россия",4.1,"30.431796","60.052187","Девяткино",680,"Брачнев ручей",150,"https://yandex.ru/maps/org/gradusy/134633796384/"
"45","Супер Лента","Привокзальная площадь, 3Б, Мурино, Россия",4.3,"30.446135","60.052787","Девяткино",330,"Станция метро Девяткино",300,"https://yandex.ru/maps/org/super_lenta/1634602586/"
"46","Колхоз","Петровский бул., 2, корп. 1, Мурино, Россия",4,"30.439252","60.056238","Девяткино",780,"Петровский бульвар",98,"https://yandex.ru/maps/org/kolkhoz/33052287368/"
"47","Продуктория","ул. Шоссе в Лаврики, 59, корп. 1, Мурино, Россия",4.2,"30.465081","60.061454","Девяткино",NA,"Улица Шоссе в Лаврики, 57",530,"https://yandex.ru/maps/org/produktoriya/97250959943/"
"48","Верный","ул. Шоссе в Лаврики, 57, корп. 1, Мурино, Россия • подъезд 1",4.1,"30.458051","60.060291","Девяткино",2000,"Улица Шоссе в Лаврики, 57",280,"https://yandex.ru/maps/org/verny/148302147975/"
"49","Metro Cash & Carry","Комендантский просп., 3, Санкт-Петербург, Россия",4.6,"30.26868","60.002202","Комендантский проспект",NA,"Туполевская улица",360,"https://yandex.ru/maps/org/metro_cash_carry/1007460870/"
"50","Bravomarket 24","ул. Шувалова, 27/7, Мурино, Россия",4.1,"30.4346","60.065663","Девяткино",NA,"Улица Шувалова, 27/7",170,"https://yandex.ru/maps/org/bravomarket_24/223865904057/"
"51","ВкусВилл","просп. Авиаторов Балтики, 11/1, Мурино, Россия",4.3,"30.440159","60.055111","Девяткино",750,"Петровский бульвар",100,"https://yandex.ru/maps/org/vkusvill/43350288416/"
"52","Индийские специи ""Виджай""","ул. Восстания, 22, Санкт-Петербург, Россия",5,"30.360246","59.938031","Площадь Восстания",750,"Ковенский переулок",100,"https://yandex.ru/maps/org/indiyskiye_spetsii_vidzhay_/1204009474/"
"53","Оливия","Гражданский просп., 24, Санкт-Петербург, Россия",4.4,"30.388395","60.004653","Академическая",NA,"Политехнический университет",120,"https://yandex.ru/maps/org/oliviya/144795848582/"
"54","Градусы","Воронцовский бул., 17, Мурино, Россия",3.8,"30.423793","60.062635","Девяткино",NA,"Графская улица",180,"https://yandex.ru/maps/org/gradusy/196501791483/"
"55","ВкусВилл","Муринская дорога, 55, корп. 1, Санкт-Петербург, Россия",4.3,"30.457946","60.032861","Девяткино",NA,"Школа № 147",190,"https://yandex.ru/maps/org/vkusvill/108066510736/"
"56","Градусы","Шоссейная ул., 5, посёлок Бугры, Россия",4.3,"30.393757","60.068143","Девяткино",4000,"Бугры-1",41,"https://yandex.ru/maps/org/gradusy/147523851642/"
"57","Воздух","Гжатская ул., 22, корп. 3, Санкт-Петербург, Россия",4.6,"30.387626","60.012647","Академическая",740,"Проспект Науки, 10",340,"https://yandex.ru/maps/org/vozdukh/116770537109/"
"58","Мясной № 1","бул. Менделеева, 1/2, Мурино, Россия",4.3,"30.437863","60.051381","Девяткино",310,"Станция метро Девяткино",190,"https://yandex.ru/maps/org/myasnoy_1/11247539421/"
"59","Перекрёсток","просп. Просвещения, 74, корп. 2, Санкт-Петербург, Россия",4.4,"30.38938","60.042226","Гражданский проспект",NA,"Улица Ольги Форш",170,"https://yandex.ru/maps/org/perekryostok/150459387202/"
"60","Красный дракон","Боровая ул., 3, Санкт-Петербург, Россия • 5 мин. от ст. м. Владимирская/Достоевская или Лиговский пр",4.9,"30.348468","59.922888","Лиговский проспект",550,"Разъезжая улица",190,"https://yandex.ru/maps/org/krasny_drakon/1002959151/"
"61","ВкусВилл","Богословская ул., 4, корп. 1, Санкт-Петербург, Россия",4.4,"30.378329","59.984385","Лесная",NA,"Лабораторный проспект, 25",830,"https://yandex.ru/maps/org/vkusvill/49021655136/"
"62","Вкусный фермер","ул. Шувалова, 13/10, Мурино, Россия",3.7,"30.428491","60.058631","Девяткино",NA,"Улица Шувалова",110,"https://yandex.ru/maps/org/vkusny_fermer/209841522581/"
"63","Магнит Семейный","Кушелевская дорога, 1к1, Санкт-Петербург, Россия • корпус 1, строение 1",4.4,"30.367525","59.986762","Лесная",NA,"Проспект Маршала Блюхера",200,"https://yandex.ru/maps/org/magnit_semeyny/205832516261/"
"64","Хлебчик","ул. Бутлерова, 9, корп. 2, Санкт-Петербург, Россия",4.6,"30.400387","60.002535","Академическая",NA,"Дворец спортивных игр Зенит",240,"https://yandex.ru/maps/org/khlebchik/176246238134/"
"65","Перекрёсток","просп. Маршала Блюхера, 41, Санкт-Петербург, Россия",4.4,"30.407927","59.975279","Выборгская",NA,"Замшина улица",300,"https://yandex.ru/maps/org/perekryostok/47414167521/"
"66","Магнит","бул. Менделеева, 11, корп. 3, Мурино, Россия",4,"30.428365","60.052151","Девяткино",900,"ЖК GreenЛандия",200,"https://yandex.ru/maps/org/magnit/210781867464/"
"67","Семишагофф","Киришская ул., 2А, Санкт-Петербург, Россия",4.1,"30.425581","60.033674","Гражданский проспект",530,"Проспект Просвещения, 106",100,"https://yandex.ru/maps/org/semishagoff/1302479650/"
"68","Халяль","бул. Менделеева, 1/1, Мурино, Россия",3.9,"30.43751","60.051339","Девяткино",320,"Станция метро Девяткино",200,"https://yandex.ru/maps/org/khalyal/129990673854/"
"69","Градусы","Привокзальная площадь, 5А, корп. 3, Мурино, Россия",4,"30.446006","60.051529","Девяткино",210,"Станция метро Девяткино",190,"https://yandex.ru/maps/org/gradusy/1211659557/"
"70","Prisma","Полюстровский просп., 84, Санкт-Петербург, Россия • секция 106, этаж 1",4.5,"30.353121","59.988147","Лесная",1000,"Полюстровский проспект",350,"https://yandex.ru/maps/org/prisma/1329638894/"
"71","Верный","ул. Демьяна Бедного, 27, корп. 2, Санкт-Петербург, Россия",4.1,"30.39225","60.048665","Гражданский проспект",NA,"Улица Демьяна Бедного",110,"https://yandex.ru/maps/org/verny/1301343971/"
"72","EUROSPAR","Владимирский просп., 19, Санкт-Петербург, Россия",4.8,"30.346043","59.928652","Достоевская",61,"Владимирская площадь",97,"https://yandex.ru/maps/org/eurospar/66190683153/"
"73","Перекрёсток","просп. Просвещения, 81, Санкт-Петербург, Россия",4.3,"30.406916","60.037339","Гражданский проспект",790,"Улица Брянцева",140,"https://yandex.ru/maps/org/perekryostok/1047895492/"
"74","ВкусВилл","просп. Маршала Блюхера, 9, корп. 1, Санкт-Петербург, Россия",4.3,"30.377299","59.98003","Выборгская",NA,"Лабораторная улица",400,"https://yandex.ru/maps/org/vkusvill/202345326023/"
"75","Градусы","просп. Просвещения, 54, Санкт-Петербург, Россия",4.3,"30.359963","60.048273","Проспект Просвещения",NA,"Улица Кустодиева",99,"https://yandex.ru/maps/org/gradusy/1762773473/"
"76","Винлаб","Воронцовский бул., 11, корп. 1, посёлок Бугры, Россия",4.4,"30.421266","60.058822","Девяткино",NA,"Петровский бульвар",59,"https://yandex.ru/maps/org/vinlab/117899655144/"
"77","Хмель Солод","Воронцовский бул., 16, Мурино, Россия",4.1,"30.425715","60.062647","Девяткино",NA,"Графская улица",180,"https://yandex.ru/maps/org/khmel_solod/92457039069/"
"78","Винный склад","Инструментальная ул., 3В, Санкт-Петербург, Россия",5,"30.324299","59.974343","Петроградская",NA,"Аптекарская набережная - Сквер Столыпина",330,"https://yandex.ru/maps/org/vinny_sklad/167835918504/"
"79","Градусы","ул. Даниила Хармса, 3, корп. 1, Санкт-Петербург, Россия",4.3,"30.449766","60.033321","Девяткино",NA,"Новая Охта",250,"https://yandex.ru/maps/org/gradusy/1754380255/"
"80","РосАл 24","ул. Шувалова, 19, корп. 1, Мурино, Россия",4.2,"30.431545","60.061616","Девяткино",NA,"Графская улица",57,"https://yandex.ru/maps/org/rosal_24/150698317869/"
"81","B12 Zero Waste","6-я линия Васильевского острова, 31/29, Санкт-Петербург, Россия",4.8,"30.278893","59.943634","Василеостровская",210,"Станция метро Василеостровская",110,"https://yandex.ru/maps/org/b12_zerowaste/138078685067/"
"82","ВкусВилл","ул. Шоссе в Лаврики, 63, Мурино, Россия",4.1,"30.460129","60.063276","Девяткино",NA,"ЖК Тридевяткино царство",260,"https://yandex.ru/maps/org/vkusvill/196840296347/"
"83","Верный","Шоссейная ул., 15, посёлок Бугры, Россия",4.1,"30.395152","60.07033","Девяткино",NA,"Бугры-2",54,"https://yandex.ru/maps/org/verny/19735442252/"
"84","Гранат","ул. Шоссе в Лаврики, 57, корп. 3, Мурино, Россия",4.2,"30.463525","60.06018","Девяткино",NA,"Улица Шоссе в Лаврики, 57",470,"https://yandex.ru/maps/org/granat/44907917711/"
"85","Семишагофф","просп. Просвещения, 75, Санкт-Петербург, Россия • помещение 19Н",4.1,"30.402311","60.038528","Гражданский проспект",1000,"Светлановский проспект",210,"https://yandex.ru/maps/org/semishagoff/1774234952/"
"86","Магазин","6-й Верхний пер., 1Д, Санкт-Петербург, Россия",4.4,"30.37193","60.074705","Парнас",NA,"Домостроительная улица",300,"https://yandex.ru/maps/org/magazin/215639629431/"
"87","Колхоз","ул. Фёдора Абрамова, 8, корп. 1, посёлок Парголово, Россия",4.4,"30.337949","60.072107","Парнас",590,"Улица Фёдора Абрамова, 8",69,"https://yandex.ru/maps/org/kolkhoz/126021490337/"
"88","Градусы","просп. Просвещения, 68, корп. 1, Санкт-Петербург, Россия",4.3,"30.380041","60.044154","Гражданский проспект",NA,"Поликлиника № 96",110,"https://yandex.ru/maps/org/gradusy/1783383090/"
"89","Градусы","просп. Художников, 30, корп. 1, Санкт-Петербург, Россия",4.2,"30.355232","60.051333","Проспект Просвещения",NA,"Сиреневый бульвар",200,"https://yandex.ru/maps/org/gradusy/7209710262/"
"90","Прошуттерия","Озерной пер., 7, Санкт-Петербург, Россия",4.9,"30.363535","59.93781","Площадь Восстания",850,"Мальцевский рынок",200,"https://yandex.ru/maps/org/proshutteriya/19551807110/"
"91","ВкусВилл","ул. Есенина, 1, корп. 1, Санкт-Петербург, Россия",4.3,"30.330383","60.029118","Озерки",NA,"Северный проспект",180,"https://yandex.ru/maps/org/vkusvill/14371153157/"
"92","Green Point","Литейный просп., 21, Санкт-Петербург, Россия",4.5,"30.348093","59.942927","Чернышевская",840,"Улица Пестеля",51,"https://yandex.ru/maps/org/green_point/2595215580/"
"93","Верный","просп. Культуры, 29, корп. 1, Санкт-Петербург, Россия",4.1,"30.380615","60.049627","Гражданский проспект",NA,"Проспект Культуры, 31",120,"https://yandex.ru/maps/org/verny/1181106631/"
"94","Градусы","Сиреневый бул., 18, корп. 1, Санкт-Петербург, Россия",4.3,"30.36332","60.052536","Проспект Просвещения",NA,"Сиреневый бульвар, 18",160,"https://yandex.ru/maps/org/gradusy/100916990499/"
"95","Перекрёсток","ул. Карбышева, 9, Санкт-Петербург, Россия • литер А",4.4,"30.35256","59.993148","Площадь Мужества",NA,"Улица Карбышева",260,"https://yandex.ru/maps/org/perekryostok/96759784640/"
"96","ВкусВилл","Кондратьевский просп., 62, корп. 2, Санкт-Петербург, Россия",4.3,"30.39448","59.980641","Выборгская",NA,"Кондратьевский проспект, 62",200,"https://yandex.ru/maps/org/vkusvill/23272623364/"
"97","EUROSPAR","Невский просп., 48, Санкт-Петербург, Россия",4.6,"30.334406","59.935163","Гостиный двор",300,"Итальянская улица",240,"https://yandex.ru/maps/org/eurospar/110236798747/"
"98","Семишагофф","ул. Ушинского, 35, корп. 1, Санкт-Петербург, Россия • этаж 1",3.9,"30.415261","60.041185","Гражданский проспект",920,"Тимуровская улица",97,"https://yandex.ru/maps/org/semishagoff/1806394888/"
"99","Семишагофф","просп. Культуры, 12, корп. 1, Санкт-Петербург, Россия",4,"30.36773","60.039446","Проспект Просвещения",NA,"Проспект Культуры, 11",270,"https://yandex.ru/maps/org/semishagoff/62661079254/"
"100","Винлаб","ул. Шувалова, 22, корп. 1, Мурино, Россия",4.3,"30.431915","60.06008","Девяткино",NA,"Графская улица",780,"https://yandex.ru/maps/org/vinlab/95402810447/"
"101","Бомонд24.ру","Большая Пороховская ул., 61, Санкт-Петербург, Россия",4.9,"30.445917","59.952624","Ладожская",3000,"Бокситогорская улица",210,"https://yandex.ru/maps/org/bomond24_ru/86120727073/"
"102","Винлаб","ул. Шоссе в Лаврики, 63, Мурино, Россия",4.3,"30.460147","60.063116","Девяткино",NA,"ЖК Тридевяткино царство",280,"https://yandex.ru/maps/org/vinlab/194331260816/"
"103","Гастрономическая лавка","Кременчугская ул., 11, корп. 1, Санкт-Петербург, Россия",4.7,"30.371222","59.922882","Площадь Александра Невского-2",NA,"Больница имени Боткина",340,"https://yandex.ru/maps/org/gastronomicheskaya_lavka/181719758285/"
"104","Красное&Белое","Светлановский просп., 115, корп. 1, Санкт-Петербург, Россия",4.5,"30.40313","60.043776","Гражданский проспект",NA,"Светлановский проспект",48,"https://yandex.ru/maps/org/krasnoye_beloye/145045241345/"
"105","Оливия","ул. Савушкина, 48, Санкт-Петербург, Россия",4.7,"30.281075","59.984458","Чёрная речка",NA,"Улица Оскаленко",170,"https://yandex.ru/maps/org/oliviya/1243652334/"
"106","Mak market","Петровский бул., 7, Мурино, Россия",4.1,"30.433558","60.056633","Девяткино",NA,"Улица Шувалова",240,"https://yandex.ru/maps/org/mak_market/66976017550/"
"107","Оливия","Суворовский просп., 23, Санкт-Петербург, Россия",4.4,"30.373053","59.936518","Площадь Восстания",NA,"Суворовский проспект",74,"https://yandex.ru/maps/org/oliviya/139922531144/"
"108","Семишагофф","просп. Непокорённых, 2, Санкт-Петербург, Россия • этаж 1",4.2,"30.365989","59.998492","Площадь Мужества",160,"Станция метро Площадь Мужества",70,"https://yandex.ru/maps/org/semishagoff/81011913381/"
"109","Колхоз","Толубеевский пр., 14, корп. 1, посёлок Парголово, Россия",4.3,"30.348579","60.076341","Парнас",NA,"Улица Николая Рубцова",550,"https://yandex.ru/maps/org/kolkhoz/111317664327/"
"110","Перекрёсток","Кушелевская дорога, 7, корп. 1, Санкт-Петербург, Россия",4.3,"30.375099","59.989547","Лесная",NA,"Кушелевская дорога, 5",290,"https://yandex.ru/maps/org/perekryostok/65251485896/"
"111","Градусы","просп. Просвещения, 33, корп. 1, Санкт-Петербург, Россия",4.2,"30.344533","60.050273","Проспект Просвещения",810,"Улица Ивана Фомина",220,"https://yandex.ru/maps/org/gradusy/151464121717/"
"112","Ароматный Мир","ул. Бутлерова, 9, корп. 2, Санкт-Петербург, Россия",4.6,"30.39895","60.002913","Академическая",NA,"Дворец спортивных игр Зенит",98,"https://yandex.ru/maps/org/aromatny_mir/1736786568/"
"113","Родной","Воронцовский бул., 11, корп. 1, посёлок Бугры, Россия",3.6,"30.420512","60.057209","Девяткино",NA,"Воронцовский бульвар",100,"https://yandex.ru/maps/org/rodnoy/46138768336/"
"114","Мясо Халяль","Главная ул., 50, д. Новое Девяткино, Россия",4.1,"30.477772","60.05752","Девяткино",NA,"Новое Девяткино-2",110,"https://yandex.ru/maps/org/myaso_khalyal/8984148709/"
"115","Градусы","просп. Ударников, 47, Санкт-Петербург, Россия",4.3,"30.489323","59.955532","Ладожская",NA,"Проспект Ударников",310,"https://yandex.ru/maps/org/gradusy/151041664616/"
"116","Оливия","Большой Сампсониевский просп., 92, Санкт-Петербург, Россия",4.4,"30.333384","59.988076","Лесная",1000,"1-й Муринский проспект",17,"https://yandex.ru/maps/org/oliviya/1245492731/"
"117","Оливия","Среднеохтинский просп., 15, Санкт-Петербург, Россия",4.5,"30.415445","59.951026","Новочеркасская",NA,"Тарасова улица",250,"https://yandex.ru/maps/org/oliviya/1200499045/"
"118","ВкусВилл","ул. Бутлерова, 42, Санкт-Петербург, Россия",4.1,"30.403632","60.010797","Академическая",540,"Улица Бутлерова",190,"https://yandex.ru/maps/org/vkusvill/9508348681/"
"119","ЛюдиЛюбят","Парашютная ул., 63, корп. 1, стр. 2, Санкт-Петербург, Россия",4.5,"30.249434","60.034827","Комендантский проспект",NA,"Шуваловский проспект",270,"https://yandex.ru/maps/org/lyudilyubyat/55138411190/"
"120","Азбука вкуса","Невский просп., 114-116, Санкт-Петербург, Россия • этаж -1",4.6,"30.35908","59.931703","Площадь Восстания",120,"Станция метро Площадь Восстания",37,"https://yandex.ru/maps/org/azbuka_vkusa/11326943456/"
"121","Птицефабрика Зеленецкая","Богатырский просп., 51, корп. 1, Санкт-Петербург, Россия",4.4,"30.219281","60.006458","Комендантский проспект",NA,"Яхтенная улица",310,"https://yandex.ru/maps/org/ptitsefabrika_zelenetskaya/104605833693/"
"122","ВкусВилл","Замшина ул., 31, Санкт-Петербург, Россия",4.2,"30.408287","59.981402","Выборгская",NA,"Замшина улица, 62",120,"https://yandex.ru/maps/org/vkusvill/62001141468/"
"123","Светофор","Минеральная ул., 23, Санкт-Петербург, Россия",4.1,"30.367843","59.965777","Выборгская",NA,"Минеральная улица",310,"https://yandex.ru/maps/org/svetofor/123959399556/"
"124","EUROSPAR","просп. Чернышевского, 4, Санкт-Петербург, Россия",4.5,"30.35997","59.948539","Чернышевская",480,"Проспект Чернышевского",140,"https://yandex.ru/maps/org/eurospar/82120428828/"
"125","Продукты 24","Воронцовский бул., 20, корп. 1, Мурино, Россия",3.7,"30.428499","60.066055","Девяткино",NA,"Воронцовский бульвар",300,"https://yandex.ru/maps/org/produkty_24/168862082988/"
"126","Мясной № 1","бул. Менделеева, 1, Мурино, Россия",4.9,"30.436144","60.051252","Девяткино",420,"Брачнев ручей",160,"https://yandex.ru/maps/org/myasnoy_1/221553813294/"
"127","Продукты Ермолино","ул. Шувалова, 9, Мурино, Россия",4.7,"30.426675","60.055744","Девяткино",NA,"Улица Шувалова",230,"https://yandex.ru/maps/org/produkty_yermolino/125228271732/"
"128","Градусы","просп. Тореза, 39, корп. 1, Санкт-Петербург, Россия",4.3,"30.350362","60.009474","Политехническая",NA,"Светлановский проспект",180,"https://yandex.ru/maps/org/gradusy/1144682071/"
"129","Вкусторг","Воронцовский бул., 23/11, Мурино, Россия",3.7,"30.42824","60.068669","Девяткино",NA,"Воронцовский бульвар",180,"https://yandex.ru/maps/org/vkustorg/53409676566/"
"130","Ермолино","ул. Комсомола, 45, Санкт-Петербург, Россия",4.4,"30.35357","59.955678","Площадь Ленина",170,"Финляндский вокзал - Метро Площадь Ленина",44,"https://yandex.ru/maps/org/yermolino/20557769735/"
"131","Градусы","1-я Утиная ул., 28, Санкт-Петербург, Россия",4.3,"30.298638","60.03398","Озерки",NA,"Большая Десятинная улица",270,"https://yandex.ru/maps/org/gradusy/221524526468/"
"132","ВкусВилл","ул. Бутлерова, 11, корп. 4, Санкт-Петербург, Россия",4.4,"30.40287","60.006246","Академическая",NA,"Улица Верности",200,"https://yandex.ru/maps/org/vkusvill/29822037255/"
"133","РеалЪ","Екатерининская ул., 22, корп. 1, Мурино, Россия",4.2,"30.440446","60.062346","Девяткино",NA,"Екатерининская улица",140,"https://yandex.ru/maps/org/real/75962649115/"
"134","Градусы","просп. Просвещения, 15, Санкт-Петербург, Россия • помещение 61Н",4.4,"30.327513","60.053322","Проспект Просвещения",390,"Станция метро Проспект Просвещения",47,"https://yandex.ru/maps/org/gradusy/1711978792/"
"135","Гастроном","Воронцовский бул., 14, корп. 1, Мурино, Россия",3.7,"30.423883","60.060712","Девяткино",2000,"Петровский бульвар",140,"https://yandex.ru/maps/org/gastronom/110302200443/"
"136","Продукты","ул. Шоссе в Лаврики, 55, Мурино, Россия",4.1,"30.458249","60.058815","Девяткино",NA,"Улица Шоссе в Лаврики, 55",150,"https://yandex.ru/maps/org/produkty/216906040202/"
"137","Семишагофф","Чкаловский просп., 15, Санкт-Петербург, Россия",4.2,"30.29368","59.962401","Чкаловская",200,"Станция метро Чкаловская",200,"https://yandex.ru/maps/org/semishagoff/60509048603/"
"138","Магазин продуктов","Школьная ул., 11, корп. 2, посёлок Бугры, Россия • этаж цокольный",3.2,"30.405969","60.067056","Девяткино",NA,"Петровский бульвар",700,"https://yandex.ru/maps/org/magazin_produktov/98912093654/"
"139","Верный","просп. Энгельса, 145, корп. 2, Санкт-Петербург, Россия",4.1,"30.338761","60.054811","Проспект Просвещения",620,"Улица Шостаковича",290,"https://yandex.ru/maps/org/verny/68792423552/"
"140","ВкусВилл","Парашютная ул., 54, Санкт-Петербург, Россия",4.4,"30.243821","60.034712","Комендантский проспект",NA,"Парашютная улица, 56",290,"https://yandex.ru/maps/org/vkusvill/41819629192/"
"141","КИО","просп. Просвещения, 32, корп. 1, Санкт-Петербург, Россия",4.3,"30.333","60.053567","Проспект Просвещения",330,"Станция метро Проспект Просвещения",29,"https://yandex.ru/maps/org/kio/106018286148/"
"142","Оливия","Лиговский просп., 73, Санкт-Петербург, Россия",4.4,"30.357173","59.925728","Маяковская",520,"Кузнечный переулок",140,"https://yandex.ru/maps/org/oliviya/46485242238/"
"143","Продукты","2-й Верхний пер., 13, Санкт-Петербург, Россия",4,"30.380413","60.066545","Парнас",NA,"5-й Верхний переулок",680,"https://yandex.ru/maps/org/produkty/89749886641/"
"144","Заботливый фермер","Гражданский просп., 39, Санкт-Петербург, Россия",4.3,"30.396015","60.010434","Академическая",410,"Улица Верности",83,"https://yandex.ru/maps/org/zabotlivy_fermer/168837735737/"
"145","Семишагофф","Заневский просп., 45, Санкт-Петербург, Россия",4.3,"30.422795","59.930665","Новочеркасская",610,"Заневский проспект, 32",200,"https://yandex.ru/maps/org/semishagoff/202943752255/"
"146","Азбука вкуса","Выборгское ш., 13, Санкт-Петербург, Россия • этаж 1",4.3,"30.314295","60.04879","Проспект Просвещения",NA,"ТК Лента",260,"https://yandex.ru/maps/org/azbuka_vkusa/1199664841/"
"147","ВкусВилл","Большой просп. Петроградской стороны, 102, Санкт-Петербург, Россия",4.3,"30.31329","59.966975","Петроградская",220,"Станция метро Петроградская",43,"https://yandex.ru/maps/org/vkusvill/8041672948/"
"148","Калининская овощебаза","просп. Непокорённых, 63, корп. 13, стр. 1, Санкт-Петербург, Россия",4.3,"30.402897","59.993214","Площадь Мужества",NA,"Печорская улица",450,"https://yandex.ru/maps/org/kalininskaya_ovoshchebaza/67550773614/"
"149","ВкусВилл","Байконурская ул., 22, Санкт-Петербург, Россия",4.1,"30.277393","60.011163","Комендантский проспект",NA,"Байконурская улица",200,"https://yandex.ru/maps/org/vkusvill/78274109358/"
"150","Колхоз","Гражданский просп., 107, корп. 4, Санкт-Петербург, Россия",4.5,"30.414391","60.028376","Гражданский проспект",870,"Гражданский проспект, 110",290,"https://yandex.ru/maps/org/kolkhoz/2194062028/"
"151","ВкусВилл","ул. Фёдора Абрамова, 21, корп. 1, посёлок Парголово, Россия",4.5,"30.344399","60.080142","Парнас",NA,"Улица Фёдора Абрамова,18",110,"https://yandex.ru/maps/org/vkusvill/42685034296/"
"152","Ферма-сыроварня Деревня","ул. Оптиков, 34, корп. 1, Санкт-Петербург, Россия • ЖК Легенда",4.8,"30.215679","59.999938","Беговая",NA,"Туристская улица",330,"https://yandex.ru/maps/org/ferma_syrovarnya_derevnya/74296287290/"
"153","Магазин продуктов","просп. Культуры, 19А, Санкт-Петербург, Россия",4.4,"30.373039","60.042889","Проспект Просвещения",NA,"Проспект Просвещения",260,"https://yandex.ru/maps/org/magazin_produktov/238998592912/"
"154","Градусы","Воронцовский бул., 11, корп. 1, посёлок Бугры, Россия",3.9,"30.421009","60.058633","Девяткино",NA,"Петровский бульвар",130,"https://yandex.ru/maps/org/gradusy/41597551388/"
"155","ВкусВилл","Яхтенная ул., 34, Санкт-Петербург, Россия",4.5,"30.223439","60.004663","Комендантский проспект",NA,"Богатырский проспект",55,"https://yandex.ru/maps/org/vkusvill/20715916154/"
"156","Реалъ","бул. Менделеева, 7, корп. 2, Мурино, Россия • этаж 1",4.2,"30.431759","60.052234","Девяткино",670,"Брачнев ручей",150,"https://yandex.ru/maps/org/real/1566713879/"
"157","Народный","ул. Хошимина, 14, Санкт-Петербург, Россия",4,"30.323748","60.052935","Проспект Просвещения",620,"Станция метро Проспект Просвещения",270,"https://yandex.ru/maps/org/narodny/90172765344/"
"158","Градусы","Лесной просп., 59к5-6Е, Санкт-Петербург, Россия",4.2,"30.344982","59.98241","Лесная",400,"Улица Александра Матросова",130,"https://yandex.ru/maps/org/gradusy/73673982066/"
"159","Продукты","Воронцовский бул., 11, корп. 1, посёлок Бугры, Россия",3.6,"30.420763","60.058368","Девяткино",NA,"Петровский бульвар",150,"https://yandex.ru/maps/org/produkty/104737448988/"
"160","Верный","Воронцовский бул., 12, Мурино, Россия • помещение 37-Н, 40-Н",3.7,"30.422425","60.057941","Девяткино",NA,"Воронцовский бульвар",140,"https://yandex.ru/maps/org/verny/21529344264/"
"161","Продукты Халяль","ул. Шувалова, 16/9, Мурино, Россия",3.7,"30.429239","60.056916","Девяткино",NA,"Петровский бульвар",130,"https://yandex.ru/maps/org/produkty_khalyal/224556955102/"
"162","Градусы","просп. Художников, 14, Санкт-Петербург, Россия",4.2,"30.344632","60.038533","Озерки",NA,"Проспект Луначарского",200,"https://yandex.ru/maps/org/gradusy/1751637912/"
"163","ВкусВилл","ул. Восстания, 19, Санкт-Петербург, Россия",4.2,"30.360604","59.935412","Площадь Восстания",440,"Ковенский переулок",210,"https://yandex.ru/maps/org/vkusvill/18012388149/"
"164","Светофор","ул. Композиторов, 32, Санкт-Петербург, Россия",4,"30.319697","60.064625","Проспект Просвещения",2000,"Улица Композиторов",170,"https://yandex.ru/maps/org/svetofor/177435463690/"
"165","Organic Origin","Сытнинская площадь, 3, Санкт-Петербург, Россия",4.4,"30.31103","59.957162","Горьковская",510,"Сытный рынок",86,"https://yandex.ru/maps/org/organic_origin/235341918060/"
"166","Супер Лента","Гражданский просп., 111, Санкт-Петербург, Россия",4.2,"30.415119","60.029287","Гражданский проспект",750,"Гражданский проспект, 110",170,"https://yandex.ru/maps/org/super_lenta/1755278896/"
"167","Градусы","Стародеревенская ул., 6, корп. 1, Санкт-Петербург, Россия",4.3,"30.242045","59.986668","Старая Деревня",NA,"Стародеревенская улица",260,"https://yandex.ru/maps/org/gradusy/6149564092/"
"168","Градусы","просп. Наставников, 19, Санкт-Петербург, Россия",4.3,"30.491443","59.944253","Проспект Большевиков",NA,"Проспект Наставников",120,"https://yandex.ru/maps/org/gradusy/184206599027/"
"169","Градусы","просп. Металлистов, 116, корп. 1, Санкт-Петербург, Россия",4.1,"30.396483","59.971479","Выборгская",NA,"Замшина улица",180,"https://yandex.ru/maps/org/gradusy/135559447768/"
"170","Светофор","Шоссейная ул., 22, городской посёлок Янино-1, Россия",4.3,"30.554006","59.946075","Сельхоз",100,"Сельхоз",100,"https://yandex.ru/maps/org/svetofor/188159548961/"
"171","Pastrychef. pro","Коломяжский просп., 19, корп. 2, Санкт-Петербург, Россия • ТК Капитолий, эт. 3",4.4,"30.29795","60.008505","Пионерская",790,"Проспект Королёва",370,"https://yandex.ru/maps/org/pastrychef_pro/99289570478/"
"172","Градусы","Кушелевская дорога, 5, корп. 3, Санкт-Петербург, Россия",4.1,"30.373623","59.987432","Лесная",2000,"Кушелевская дорога, 5",340,"https://yandex.ru/maps/org/gradusy/89811094970/"
"173","ВкусВилл","Суворовский просп., 35, Санкт-Петербург, Россия",4.2,"30.376317","59.9389","Площадь Восстания",NA,"Сквер Галины Старовойтовой",120,"https://yandex.ru/maps/org/vkusvill/102212120934/"
"174","Prisma","Транспортный пер., 1, Санкт-Петербург, Россия",4.3,"30.356761","59.920639","Лиговский проспект",110,"Станция метро Лиговский проспект",210,"https://yandex.ru/maps/org/prisma/37930585827/"
"175","Озон","Подгорная ул., 61, посёлок Парголово, Россия",4.6,"30.251343","60.090253","Почта",NA,"Почта",NA,"https://yandex.ru/maps/org/ozon/154999853485/"
"176","Колхоз","просп. Энгельса, 134, корп. 3, Санкт-Петербург, Россия",4.5,"30.330986","60.048841","Проспект Просвещения",310,"Улица Асафьева",210,"https://yandex.ru/maps/org/kolkhoz/121269962852/"
"177","Колхоз","просп. Энгельса, 128, Санкт-Петербург, Россия",4.4,"30.326381","60.042863","Озерки",770,"Проспект Луначарского / Проспект Энгельса",110,"https://yandex.ru/maps/org/kolkhoz/128760099306/"
"178","ВкусВилл","Европейский просп., 8, Кудрово, Россия",4.7,"30.51277","59.900516","Улица Дыбенко",NA,"Венская улица",110,"https://yandex.ru/maps/org/vkusvill/112882015658/"
"179","Азбука daily","Парадная ул., 3, корп. 2, Санкт-Петербург, Россия",4.4,"30.366441","59.941799","Чернышевская",800,"Мальцевский рынок",440,"https://yandex.ru/maps/org/azbuka_daily/94170451336/"
"180","Гастрономический салон Гедонист","Столярный пер., 18, Санкт-Петербург, Россия",4.6,"30.313232","59.926337","Садовая",270,"Сенная площадь",200,"https://yandex.ru/maps/org/gastronomicheskiy_salon_gedonist/99583301045/"
"181","Градусы","Приозерское ш., 16, корп. 1, посёлок Парголово, Россия",4.6,"30.257334","60.109675","Приозерское шоссе",190,"Приозерское шоссе",190,"https://yandex.ru/maps/org/gradusy/66143445209/"
"182","ВкусВилл","просп. Просвещения, 15, Санкт-Петербург, Россия",4.3,"30.327196","60.053952","Проспект Просвещения",480,"Станция метро Проспект Просвещения",140,"https://yandex.ru/maps/org/vkusvill/213472073505/"
"183","Градусы","ул. Восстания, 10/51, Санкт-Петербург, Россия",4.4,"30.359995","59.935469","Площадь Восстания",450,"Ковенский переулок",180,"https://yandex.ru/maps/org/gradusy/1683836454/"
"184","Перекрёсток","Новая ул., 8, Мурино, Россия",4.3,"30.44612","60.0408","Девяткино",NA,"Проспект Маршака",380,"https://yandex.ru/maps/org/perekryostok/132293245496/"
"185","Винлаб","просп. Просвещения, 33, корп. 1, Санкт-Петербург, Россия",4.3,"30.34596","60.050076","Проспект Просвещения",880,"Улица Ивана Фомина",99,"https://yandex.ru/maps/org/vinlab/100089250397/"
"186","Оливия","Кондратьевский просп., 61, Санкт-Петербург, Россия",4.2,"30.391771","59.975606","Выборгская",NA,"Проспект Металлистов",140,"https://yandex.ru/maps/org/oliviya/1243047625/"
"187","Градусы","ул. Михаила Дудина, 25, корп. 2, посёлок Парголово, Россия",4.3,"30.329935","60.071341","Парнас",670,"Улица Михаила Дудина, 25",260,"https://yandex.ru/maps/org/gradusy/21368786348/"
"188","Винлаб","просп. Энгельса, 132, корп. 1, Санкт-Петербург, Россия",4.4,"30.32925","60.047173","Проспект Просвещения",910,"Улица Асафьева",460,"https://yandex.ru/maps/org/vinlab/132701967148/"
"189","Продукты Ермолино","ул. Есенина, 32, корп. 1, Санкт-Петербург, Россия",4.3,"30.339252","60.052525","Проспект Просвещения",520,"Улица Есенина",180,"https://yandex.ru/maps/org/produkty_yermolino/196383185050/"
"190","Семишагофф","ул. Ивана Фомина, 14, корп. 1, Санкт-Петербург, Россия • этаж 1",4.1,"30.346066","60.04922","Проспект Просвещения",920,"Улица Ивана Фомина",110,"https://yandex.ru/maps/org/semishagoff/1280561436/"
"191","Индифиш","просп. Маршала Блюхера, 9, корп. 2, Санкт-Петербург, Россия • этаж 1",4.3,"30.37469","59.978408","Выборгская",NA,"Чугунная улица",520,"https://yandex.ru/maps/org/indifish/130561894862/"
"192","Верный","ул. Шувалова, 10/18, Мурино, Россия",3.8,"30.427709","60.054687","Девяткино",NA,"ЖСК GreenЛандия",210,"https://yandex.ru/maps/org/verny/80219796786/"
"193","Градусы","ул. Смолячкова, 12, Санкт-Петербург, Россия",4.2,"30.343078","59.971069","Выборгская",300,"Улица Смолячкова",180,"https://yandex.ru/maps/org/gradusy/182586630396/"
"194","ВкусВилл","Кузнечный пер., 19-21, Санкт-Петербург, Россия",4.4,"30.357262","59.926526","Маяковская",460,"Кузнечный переулок",79,"https://yandex.ru/maps/org/vkusvill/237837741103/"
"195","Фермер","просп. Тореза, 39, корп. 1, Санкт-Петербург, Россия • 1",4.3,"30.349252","60.010146","Политехническая",NA,"Светлановский проспект",84,"https://yandex.ru/maps/org/fermer/91993099474/"
"196","ВкусВилл","ул. Коллонтай, 5/1, Санкт-Петербург, Россия",4.4,"30.449995","59.914327","Проспект Большевиков",NA,"Нерчинская улица",210,"https://yandex.ru/maps/org/vkusvill/192511876404/"
"197","Пышка Кот","Екатерининский просп., 2, Санкт-Петербург, Россия",4.2,"30.436361","59.977473","Екатерининский проспект",140,"Екатерининский проспект",140,"https://yandex.ru/maps/org/pyshka_kot/206901912448/"
"198","Семишагофф","ул. Харченко, 3, Санкт-Петербург, Россия",4,"30.352372","59.980943","Лесная",870,"Диагональная улица",110,"https://yandex.ru/maps/org/semishagoff/134665738772/"
"199","Семишагофф","просп. Науки, 38, Санкт-Петербург, Россия",3.9,"30.420973","60.007636","Академическая",NA,"Улица Карпинского",130,"https://yandex.ru/maps/org/semishagoff/121909402280/"
"200","Нова Русса","Шоссейная ул., 58, д. Энколово, Россия",4.4,"30.448417","60.111742","Дорога на Сярьги",560,"Дорога на Сярьги",560,"https://yandex.ru/maps/org/nova_russa/216930649727/"
"201","Родной","ул. Шувалова, 27/7, Мурино, Россия",2.5,"30.434838","60.065849","Девяткино",NA,"Улица Шувалова, 27/7",140,"https://yandex.ru/maps/org/rodnoy/97391790176/"
"202","Белорусский дворик","ул. Шоссе в Лаврики, 85, Мурино, Россия",4.1,"30.457973","60.064358","Девяткино",NA,"ЖК Тридевяткино царство",79,"https://yandex.ru/maps/org/belorusskiy_dvorik/58527534004/"
"203","Joia wine store","Большая Конюшенная ул., 27, Санкт-Петербург, Россия",4.4,"30.322447","59.93691","Гостиный двор",390,"Большая Конюшенная улица",130,"https://yandex.ru/maps/org/joia_wine_store/131356890906/"
"204","Градусы","Удельный просп., 27, Санкт-Петербург, Россия",4.2,"30.314597","60.017927","Удельная",180,"Станция метро Удельная",81,"https://yandex.ru/maps/org/gradusy/132318259869/"
"205","Светофор","Выборгское ш., 369, корп. 6, посёлок Парголово, Россия",4.3,"30.283286","60.073729","Парнас",NA,"Дорога в Каменку",220,"https://yandex.ru/maps/org/svetofor/10754211112/"
"206","Градусы","ул. Жени Егоровой, 3, корп. 1, Санкт-Петербург, Россия",4.3,"30.307638","60.062823","Проспект Просвещения",NA,"Улица Жени Егоровой",340,"https://yandex.ru/maps/org/gradusy/81266611646/"
"207","ВкусВилл","Большой просп. Петроградской стороны, 29/2, Санкт-Петербург, Россия",4.3,"30.29945","59.957779","Чкаловская",600,"Большой проспект П.С.",54,"https://yandex.ru/maps/org/vkusvill/197941720765/"
"208","Колхоз","Индустриальный просп., 34, Санкт-Петербург, Россия",4.4,"30.469732","59.951803","Ладожская",NA,"Индустриальный проспект",180,"https://yandex.ru/maps/org/kolkhoz/107964207387/"
"209","Верный","Арсенальная ул., 7, д. Новое Девяткино, Россия",4.1,"30.469581","60.059798","Девяткино",NA,"Токсовское шоссе",520,"https://yandex.ru/maps/org/verny/26905106104/"
"210","Хочу сладкое, без сахара","ул. Композиторов, 12Б, Санкт-Петербург, Россия",4.3,"30.31425","60.053284","Проспект Просвещения",NA,"Улица Композиторов",270,"https://yandex.ru/maps/org/khochu_sladkoye_bez_sakhara/57707368983/"
"211","Гастроном Базар","Фермское ш., 14, корп. 1, Санкт-Петербург, Россия",4.4,"30.31304","60.012917","Удельная",660,"Станция Удельная",500,"https://yandex.ru/maps/org/gastronom_bazar/174522343396/"
"212","Колхоз","ул. Савушкина, 128, корп. 1Б, Санкт-Петербург, Россия",4.6,"30.201183","59.988597","Беговая",98,"Станция метро Беговая",180,"https://yandex.ru/maps/org/kolkhoz/11527110570/"
"213","Градусы","Среднеохтинский просп., 35, Санкт-Петербург, Россия",4.2,"30.415687","59.955638","Новочеркасская",NA,"Краснодонская улица",42,"https://yandex.ru/maps/org/gradusy/1683404001/"
"214","ВкусВилл","Парашютная ул., 63, корп. 1, стр. 1, Санкт-Петербург, Россия",4.3,"30.249104","60.035192","Комендантский проспект",NA,"Парашютная улица, 54",270,"https://yandex.ru/maps/org/vkusvill/187631744589/"
"215","Супер Лента","Оборонная ул., 37, корп. 1, Мурино, Россия",4.3,"30.463998","60.042605","Девяткино",NA,"Администрация посёлка Мурино",99,"https://yandex.ru/maps/org/super_lenta/110662514404/"
"216","Агросоюз Любава","Россия, Санкт-Петербург, улица Черкасова • участок 1",4.2,"30.420553","60.023844","Гражданский проспект",NA,"Улица Черкасова",36,"https://yandex.ru/maps/org/agrosoyuz_lyubava/36761476114/"
"217","Грузинская кухня","Малый просп. Васильевского острова, 35, Санкт-Петербург, Россия",4.5,"30.267668","59.945198","Василеостровская",890,"12-я и 13-я линии В.О.",110,"https://yandex.ru/maps/org/gruzinskaya_kukhnya/29038532816/"
"218","ВкусВилл","Комендантский просп., 13, корп. 1, Санкт-Петербург, Россия",4.3,"30.259757","60.00896","Комендантский проспект",80,"Метро Комендантский проспект",83,"https://yandex.ru/maps/org/vkusvill/186517020566/"
"219","Технолог","Ланское ш., 59, Санкт-Петербург, Россия",4.3,"30.318575","59.994803","Чёрная речка",NA,"Омская улица",68,"https://yandex.ru/maps/org/tekhnolog/1018795879/"
"220","Градусы","Областная ул., 1, Кудрово, Россия",4.5,"30.504946","59.916094","Улица Дыбенко",NA,"Областная улица, 1",67,"https://yandex.ru/maps/org/gradusy/127239164867/"
"221","Premier","Парадная ул., 3, корп. 2, Санкт-Петербург, Россия",4.5,"30.369508","59.9418","Чернышевская",900,"Потёмкинская улица",310,"https://yandex.ru/maps/org/premier/156998813208/"
"222","Это - можно","ул. Жуковского, 18, Санкт-Петербург, Россия",4.4,"30.356526","59.936106","Маяковская",640,"Улица Жуковского",160,"https://yandex.ru/maps/org/eto_mozhno/1238716360/"
"223","Красный Дракон","просп. Елизарова, 15, Санкт-Петербург, Россия • лит. А",4.3,"30.422085","59.896228","Елизаровская",150,"Станция метро Елизаровская",140,"https://yandex.ru/maps/org/krasny_drakon/205238306346/"
"224","EUROSPAR","Фурштатская ул., 2/12, Санкт-Петербург, Россия",4.3,"30.349296","59.945569","Чернышевская",680,"Улица Чайковского",140,"https://yandex.ru/maps/org/eurospar/72147799884/"
"225","Градусы","наб. реки Фонтанки, 80/2, Санкт-Петербург, Россия",4.4,"30.33259","59.926732","Звенигородская",710,"Станция метро Звенигородская",460,"https://yandex.ru/maps/org/gradusy/108939525822/"
"226","ВкусВилл","Индустриальный просп., 27, Санкт-Петербург, Россия",4.1,"30.475621","59.94849","Ладожская",3000,"Проспект Энтузиастов",95,"https://yandex.ru/maps/org/vkusvill/156360087333/"
"227","Градусы","Байконурская ул., 26, Санкт-Петербург, Россия",4.1,"30.279417","60.01459","Комендантский проспект",NA,"Парашютная улица",280,"https://yandex.ru/maps/org/gradusy/168829690455/"
"228","Семишагофф","ш. Революции, 31, Санкт-Петербург, Россия • этаж 1",4.1,"30.427386","59.958615","Ладожская",NA,"Проспект Металлистов / Шоссе Революции",290,"https://yandex.ru/maps/org/semishagoff/1370149373/"
"229","Момо","Каменноостровский просп., 40, Санкт-Петербург, Россия",4.1,"30.310648","59.966085","Петроградская",21,"Станция метро Петроградская",94,"https://yandex.ru/maps/org/momo/131124321138/"
"230","Prisma","Долгоозёрная ул., 14, корп. 2, Санкт-Петербург, Россия • секция 1, этаж -1",4.3,"30.245361","60.016598","Комендантский проспект",NA,"Долгоозёрная улица",240,"https://yandex.ru/maps/org/prisma/69715646025/"
"231","Семишагофф","Кондратьевский просп., 75, корп. 2, Санкт-Петербург, Россия",3.9,"30.399272","59.978549","Выборгская",NA,"Замшина улица",270,"https://yandex.ru/maps/org/semishagoff/1317420386/"
"232","Вместе","ул. Куйбышева, 27, Санкт-Петербург, Россия",4,"30.332891","59.957223","Горьковская",1000,"Улица Чапаева",18,"https://yandex.ru/maps/org/vmeste/214877625492/"
"233","Градусы","Разъезжая ул., 46Б, Санкт-Петербург, Россия",4.3,"30.353447","59.921463","Лиговский проспект",120,"Станция метро Лиговский проспект",100,"https://yandex.ru/maps/org/gradusy/231112507432/"
"234","Верный","Ярославский просп., 63, Санкт-Петербург, Россия • помещение 8-Н, 9-Н, 10-Н, 11-Н, 13-Н",4.1,"30.318661","60.020952","Удельная",620,"Рашетова улица",140,"https://yandex.ru/maps/org/verny/182537220904/"
"235","Семишагофф","Троицкий просп., 4В, Санкт-Петербург, Россия",4.4,"30.304811","59.915744","Технологический институт-2",820,"Измайловский проспект",160,"https://yandex.ru/maps/org/semishagoff/1352397268/"
"236","Честная Лавка","Муринская дорога, 16, корп. 1, Санкт-Петербург, Россия • этаж 1",4,"30.481221","60.010366","Цветной город",280,"Цветной город",280,"https://yandex.ru/maps/org/chestnaya_lavka/209825958935/"
"237","Верный","Заречная ул., 11, корп. 2, посёлок Парголово, Россия",4,"30.310727","60.069889","Парнас",NA,"Шуваловский парк",910,"https://yandex.ru/maps/org/verny/175244852178/"
"238","Лавка","Пискарёвский просп., 20, Санкт-Петербург, Россия",4.1,"30.410929","59.970746","Выборгская",NA,"Пискарёвский проспект / Проспект Металлистов",290,"https://yandex.ru/maps/org/lavka/63218260465/"
"239","Градусы","8-я Советская ул., 16/25, Санкт-Петербург, Россия",4.2,"30.373469","59.936931","Площадь Восстания",NA,"Суворовский проспект",52,"https://yandex.ru/maps/org/gradusy/228644545982/"
"240","НА КРЮЧКЕ","Туристская ул., 28, корп. 1, Санкт-Петербург, Россия",4.2,"30.208635","60.002534","Беговая",NA,"Туристская улица",170,"https://yandex.ru/maps/org/na_kryuchke/194791856264/"
"241","Семишагофф","просп. Ударников, 40, Санкт-Петербург, Россия",4,"30.478619","59.953557","Ладожская",NA,"Проспект Наставников",230,"https://yandex.ru/maps/org/semishagoff/1289910366/"
"242","Народный Кондитер","Парашютная ул., 23, корп. 1, Санкт-Петербург, Россия • 1 этаж ",4,"30.270977","60.018683","Комендантский проспект",NA,"Улица Маршала Новикова",41,"https://yandex.ru/maps/org/narodny_konditer/81994459935/"
"243","Градусы","просп. Косыгина, 30, корп. 1, Санкт-Петербург, Россия",4,"30.49766","59.946049","Ладожская",4000,"Универсам",92,"https://yandex.ru/maps/org/gradusy/19693320513/"
"244","Семишагофф","Тихорецкий просп., 26, Санкт-Петербург, Россия",3.8,"30.367035","60.017792","Политехническая",NA,"Светлановский проспект / Тихорецкий проспект",10,"https://yandex.ru/maps/org/semishagoff/64537691601/"
"245","Семишагофф","просп. Просвещения, 54, Санкт-Петербург, Россия",3.7,"30.360339","60.048211","Проспект Просвещения",NA,"Улица Кустодиева",100,"https://yandex.ru/maps/org/semishagoff/1469974569/"
"246","Верный","просп. Сизова, 30, корп. 4, Санкт-Петербург, Россия",4.1,"30.274262","60.013624","Комендантский проспект",NA,"Проспект Сизова",210,"https://yandex.ru/maps/org/verny/132730917255/"
"247","Градусы","Малый просп. Петроградской стороны, 82, Санкт-Петербург, Россия • этаж 1",4.2,"30.304799","59.965275","Петроградская",520,"Большой проспект П.С.",130,"https://yandex.ru/maps/org/gradusy/1755522594/"
"248","Окраина","Туристская ул., 28, корп. 1, Санкт-Петербург, Россия",4.1,"30.209391","60.003232","Беговая",2000,"Туристская улица",290,"https://yandex.ru/maps/org/okraina/152418857910/"
"249","Prisma","Большой просп. Васильевского острова, 68, Санкт-Петербург, Россия • ТPК Балтийский",4.3,"30.260295","59.932017","Василеостровская",2000,"24-я и 25-я линии В.О.",120,"https://yandex.ru/maps/org/prisma/242598180964/"
"250","Семишагофф","Комендантский просп., 32, корп. 5, Санкт-Петербург, Россия • этаж 1",4,"30.244056","60.017962","Комендантский проспект",NA,"Долгоозёрная улица",300,"https://yandex.ru/maps/org/semishagoff/1277496464/"
"251","Семишагофф","просп. Художников, 14, Санкт-Петербург, Россия",3.7,"30.343986","60.037761","Озерки",NA,"Учебный переулок",110,"https://yandex.ru/maps/org/semishagoff/1387457696/"
"252","Prisma","площадь Александра Невского, 2В, Санкт-Петербург, Россия • этаж цокольный",4.3,"30.385896","59.92465","Площадь Александра Невского-1",180,"Станция метро Площадь Александра Невского",180,"https://yandex.ru/maps/org/prisma/7164725077/"
"253","Семишагофф","8-я Советская ул., 7, Санкт-Петербург, Россия",4,"30.371563","59.937365","Площадь Восстания",NA,"Суворовский проспект",160,"https://yandex.ru/maps/org/semishagoff/1397795027/"
"254","Семишагофф","ул. Коллонтай, 18, Санкт-Петербург, Россия",4,"30.463702","59.918905","Проспект Большевиков",310,"Клочков переулок",96,"https://yandex.ru/maps/org/semishagoff/69844714834/"
"255","Супер Лента","Бестужевская ул., 10, Санкт-Петербург, Россия • этаж 1",4.2,"30.393697","59.987208","Лесная",NA,"Богословское кладбище",160,"https://yandex.ru/maps/org/super_lenta/194476568494/"
"256","Перекрёсток","Кронверкская ул., 5, Санкт-Петербург, Россия",4.3,"30.313064","59.958141","Горьковская",570,"Сытный рынок",120,"https://yandex.ru/maps/org/perekryostok/1517283968/"
"257","Семишагофф","просп. Королёва, 29, корп. 1Б, Санкт-Петербург, Россия",3.8,"30.266412","60.01356","Комендантский проспект",880,"Улица Маршала Новикова",110,"https://yandex.ru/maps/org/semishagoff/91262901641/"
"258","Семишагофф","Графский пер., 9, Санкт-Петербург, Россия",4,"30.347479","59.930092","Достоевская",240,"Владимирская площадь",140,"https://yandex.ru/maps/org/semishagoff/1244983656/"
"259","Градусы","Богатырский просп., 49, корп. 1, Санкт-Петербург, Россия",4.1,"30.224619","60.006353","Комендантский проспект",NA,"Яхтенная улица",140,"https://yandex.ru/maps/org/gradusy/1255891585/"
"260","ЖивиНатурально.ру","Петропавловская ул., 8, Санкт-Петербург, Россия",4.1,"30.314842","59.967307","Петроградская",410,"Набережная реки Карповки",190,"https://yandex.ru/maps/org/zhivinaturalno_ru/1401145837/"
"261","Азбука daily","ул. Марата, 1/71, Санкт-Петербург, Россия",4.1,"30.355141","59.931225","Маяковская",23,"Станция метро Площадь Восстания",130,"https://yandex.ru/maps/org/azbuka_daily/87257348966/"
"262","Азбука daily","Невский просп., 142, Санкт-Петербург, Россия",4,"30.369268","59.929575","Площадь Восстания",580,"Суворовский проспект / Невский проспект",41,"https://yandex.ru/maps/org/azbuka_daily/143121248111/"
"263","Перекрёсток","Малая Монетная ул., 2Г, Санкт-Петербург, Россия",4.3,"30.31968","59.95926","Горьковская",450,"Австрийская площадь",240,"https://yandex.ru/maps/org/perekryostok/1340446470/"
"264","Семишагофф","просп. Королёва, 43, корп. 1, Санкт-Петербург, Россия",3.7,"30.254729","60.021321","Комендантский проспект",NA,"Проспект Королёва, 44",200,"https://yandex.ru/maps/org/semishagoff/174553667717/"
"265","ВкусВилл","Садовая ул., 38, Санкт-Петербург, Россия",4.2,"30.321312","59.928068","Сенная площадь",150,"Станция метро Сенная площадь",34,"https://yandex.ru/maps/org/vkusvill/23405868948/"
"266","Меркато","ул. Оптиков, 37, Санкт-Петербург, Россия",4.1,"30.212974","60.001452","Беговая",2000,"Улица Оптиков",240,"https://yandex.ru/maps/org/merkato/132028768068/"
"267","Семишагофф","Тихоокеанская ул., 14, корп. 2, посёлок Парголово, Россия",4.3,"30.23717","60.06989","Тихоокеанская улица",280,"Тихоокеанская улица",280,"https://yandex.ru/maps/org/semishagoff/244657849755/"
"268","Супер Лента","Богатырский просп., 35, корп. 1, Санкт-Петербург, Россия • этаж цокольный",4.3,"30.241852","60.003762","Комендантский проспект",NA,"Стародеревенская улица / Богатырский проспект",280,"https://yandex.ru/maps/org/super_lenta/51824974200/"
"269","Минимаркет","Железноводская ул., 1А, Санкт-Петербург, Россия",4.1,"30.261818","59.952866","Спортивная",NA,"Уральская улица",95,"https://yandex.ru/maps/org/minimarket/43837489876/"
"270","Семишагофф","Большая Пороховская ул., 56, Санкт-Петербург, Россия",4,"30.434855","59.953543","Ладожская",NA,"Проспект Энергетиков",94,"https://yandex.ru/maps/org/semishagoff/1707481243/"
"271","Семишагофф","просп. Большевиков, 24, корп. 1, Санкт-Петербург, Россия",4.1,"30.490346","59.900101","Улица Дыбенко",980,"Улица Крыленко",150,"https://yandex.ru/maps/org/semishagoff/1349413677/"
"272","Семишагофф","просп. Тореза, 28, Санкт-Петербург, Россия",3.7,"30.35845","60.002509","Площадь Мужества",720,"Проспект Тореза, 21",140,"https://yandex.ru/maps/org/semishagoff/1357196307/"
"273","Перекрёсток","Лиговский просп., 30, Санкт-Петербург, Россия • секция 121, этаж 1",4.3,"30.361474","59.926646","Маяковская",510,"Кузнечный переулок",270,"https://yandex.ru/maps/org/perekryostok/129324686328/"
"274","Семишагофф","Яхтенная ул., 4, корп. 1, Санкт-Петербург, Россия",4.1,"30.213413","59.985096","Беговая",840,"Улица Савушкина",220,"https://yandex.ru/maps/org/semishagoff/110226846026/"
"275","Азбука daily","Загородный просп., 18, Санкт-Петербург, Россия",4.2,"30.342743","59.926127","Достоевская",360,"Пять углов",20,"https://yandex.ru/maps/org/azbuka_daily/13167866292/"
"276","Семишагофф","19-я линия Васильевского острова, 14/54, Санкт-Петербург, Россия",4.1,"30.26821","59.934219","Василеостровская",NA,"16-я и 17-я линии В.О.",210,"https://yandex.ru/maps/org/semishagoff/95989702101/"
"277","Продуктовый магазин","Новолитовская ул., 10, Санкт-Петербург, Россия",3.9,"30.355282","59.981714","Лесная",NA,"Мебельный центр Аквилон",190,"https://yandex.ru/maps/org/produktovy_magazin/24905564025/"
"278","Семишагофф","Красногвардейская площадь, 4, Санкт-Петербург, Россия",4,"30.411789","59.943796","Новочеркасская",NA,"Красногвардейская площадь",65,"https://yandex.ru/maps/org/semishagoff/1274729678/"
"279","Семишагофф","Ириновский просп., 21, корп. 1, Санкт-Петербург, Россия • этаж 1",3.8,"30.468879","59.955095","Ладожская",NA,"Индустриальный проспект",150,"https://yandex.ru/maps/org/semishagoff/1396713229/"
"280","Семишагофф","просп. Металлистов, 64/28, Санкт-Петербург, Россия",3.6,"30.421931","59.957543","Новочеркасская",NA,"Шоссе Революции",180,"https://yandex.ru/maps/org/semishagoff/1356524106/"
"281","Семишагофф","Туристская ул., 23, корп. 5, Санкт-Петербург, Россия • этаж 1",3.5,"30.213527","60.004456","Беговая",NA,"Туристская улица",330,"https://yandex.ru/maps/org/semishagoff/1364896462/"
"282","Светофор","просп. Пархоменко, 5, Санкт-Петербург, Россия",3.2,"30.333493","59.999674","Лесная",NA,"Проспект Энгельса",260,"https://yandex.ru/maps/org/svetofor/64287182430/"
"283","Минимаркет","ул. Генерала Хрулёва, 2, Санкт-Петербург, Россия",3.5,"30.298592","59.995636","Пионерская",860,"Аэродромная улица",200,"https://yandex.ru/maps/org/minimarket/226939078488/"
"284","Супер Лента","Уральская ул., 4, Санкт-Петербург, Россия",4.3,"30.265893","59.95058","Спортивная",NA,"Завод имени Калинина",110,"https://yandex.ru/maps/org/super_lenta/1755016365/"
"285","Меркурий","Большая Монетная ул., 35/15, Санкт-Петербург, Россия",4,"30.328121","59.963446","Петроградская",NA,"Большая Монетная улица",23,"https://yandex.ru/maps/org/merkuriy/1090286800/"
"286","Семишагофф","просп. КИМа, 4, Санкт-Петербург, Россия • этаж 1",4.1,"30.245144","59.949623","Приморская",710,"Улица Одоевского",130,"https://yandex.ru/maps/org/semishagoff/1316248412/"
"287","Универсам","Рюхина ул., 3, Санкт-Петербург, Россия",3,"30.256657","59.973778","Крестовский остров",340,"Набережная Мартынова",72,"https://yandex.ru/maps/org/universam/43546501973/"
"288","Супер Маркет 24","Новолитовская ул., 12, Санкт-Петербург, Россия",3.1,"30.358022","59.98232","Лесная",NA,"Новолитовская улица",160,"https://yandex.ru/maps/org/super_market_24/187641486275/"
"289","Супер Лента","Заневский просп., 71, корп. 1, Санкт-Петербург, Россия • ТЦ заневский каскад",4.3,"30.440464","59.933407","Ладожская",180,"Станция метро Ладожская",84,"https://yandex.ru/maps/org/super_lenta/137461719022/"
"290","Продукты","Кожевенная линия, 34, Санкт-Петербург, Россия • этаж 1",3.8,"30.244663","59.923765","Приморская",NA,"Фабрика имени Веры Слуцкой",30,"https://yandex.ru/maps/org/produkty/146625178901/"
"291","Верный","Диагональная ул., 6, Санкт-Петербург, Россия",3,"30.347446","59.981667","Лесная",540,"Диагональная улица",250,"https://yandex.ru/maps/org/verny/70895575586/"
"292","Продукты 24","Октябрьская наб., 34, корп. 2, Санкт-Петербург, Россия",3.4,"30.439173","59.904466","Проспект Большевиков",NA,"Октябрьская набережная, 38",160,"https://yandex.ru/maps/org/produkty_24/240224296825/"
"293","Семишагофф","Лиговский просп., 207, Санкт-Петербург, Россия • этаж 1",4.1,"30.347587","59.911181","Обводный канал",400,"Курская улица",130,"https://yandex.ru/maps/org/semishagoff/31727368562/"
"294","Гастрономчик Крестовский","Рюхина ул., 10, Санкт-Петербург, Россия",3.5,"30.25984","59.970673","Крестовский остров",230,"Станция метро Крестовский остров",110,"https://yandex.ru/maps/org/gastronomchik_krestovskiy/1666709849/"
"295","Мини Лента","Пискарёвский просп., 6, Санкт-Петербург, Россия",2,"30.407092","59.961796","Площадь Ленина",NA,"Пискаревский проспект",23,"https://yandex.ru/maps/org/mini_lenta/168217729916/"
"296","Семишагофф","ул. Бабушкина, 38, корп. 2, Санкт-Петербург, Россия",4.1,"30.442485","59.878052","Ломоносовская",160,"Станция метро Ломоносовская",20,"https://yandex.ru/maps/org/semishagoff/58541053544/"
"297","Народный","Серпуховская ул., 7, Санкт-Петербург, Россия",3.9,"30.321926","59.916415","Технологический институт-1",320,"Метро Технологический институт",310,"https://yandex.ru/maps/org/narodny/119314482394/"
"298","Мини Лента","ул. Беринга, 14/63, Санкт-Петербург, Россия",3,"30.243913","59.93873","Приморская",NA,"Улица Беринга",97,"https://yandex.ru/maps/org/mini_lenta/199461700532/"
"299","Супер Лента","Новгородская ул., 23, Санкт-Петербург, Россия • этаж 1",4.2,"30.390384","59.94089","Чернышевская",NA,"Новгородская улица, 26",110,"https://yandex.ru/maps/org/super_lenta/1659775595/"
"300","Супер Лента","Чкаловский просп., 50, Санкт-Петербург, Россия • этаж 1",4.2,"30.299897","59.967557","Петроградская",810,"Левашовский проспект, 2",230,"https://yandex.ru/maps/org/super_lenta/149994033165/"
"301","Градусы","просп. Пятилеток, 9, корп. 1, Санкт-Петербург, Россия",4,"30.456841","59.923748","Проспект Большевиков",900,"Улица Джона Рида",110,"https://yandex.ru/maps/org/gradusy/34764754056/"
"302","Семишагофф","Перекупной пер., 8, Санкт-Петербург, Россия • этаж цокольный",4,"30.377593","59.92857","Площадь Александра Невского-1",850,"Исполкомская улица",250,"https://yandex.ru/maps/org/semishagoff/1331459484/"
"303","Градусы","Европейский просп., 18, корп. 1, Кудрово, Россия",4,"30.515977","59.90926","Улица Дыбенко",NA,"Пражская улица",280,"https://yandex.ru/maps/org/gradusy/104632163015/"
"304","Семишагофф","Социалистическая ул., 102А, Всеволожск, Россия",3.8,"30.646578","60.01808","Социалистическая улица",16,"Социалистическая улица",16,"https://yandex.ru/maps/org/semishagoff/26666542393/"
"305","Технолог","17-я линия Васильевского острова, 30/66, Санкт-Петербург, Россия",3.5,"30.265794","59.939259","Василеостровская",830,"Средний проспект В.О.",14,"https://yandex.ru/maps/org/tekhnolog/230753223527/"
"306","Продукты 24","Невский просп., 80, Санкт-Петербург, Россия",3.9,"30.349278","59.932712","Маяковская",390,"Литейный проспект",140,"https://yandex.ru/maps/org/produkty_24/224951480760/"
"307","Семишагофф","Казанская ул., 33/5, Санкт-Петербург, Россия",3.7,"30.31206","59.929286","Садовая",550,"Казанская улица",290,"https://yandex.ru/maps/org/semishagoff/1473525710/"
"308","Мини маркет","Гороховая ул., 8/13, Санкт-Петербург, Россия",3.7,"30.311566","59.935659","Адмиралтейская",290,"Адмиралтейский проспект",16,"https://yandex.ru/maps/org/mini_market/49145004877/"
"309","Близко Маркет","2-я Советская ул., 4Б, Санкт-Петербург, Россия",3.8,"30.366487","59.932911","Площадь Восстания",540,"3-я Советская улица",230,"https://yandex.ru/maps/org/blizko_market/212905593356/"
"310","Продукты","просп. Энгельса, 93, Санкт-Петербург, Россия",2.4,"30.32209","60.025338","Удельная",NA,"Проспект Тореза",250,"https://yandex.ru/maps/org/produkty/161797523883/"
"311","Семишагофф","ул. Некрасова, 27, Центральный район, Санкт-Петербург, Россия",3.9,"30.359516","59.938688","Чернышевская",800,"Улица Восстания",81,"https://yandex.ru/maps/org/semishagoff/1783137245/"
"312","Яндекс лавка","16-я линия Васильевского острова, 87, Санкт-Петербург, Россия",3.9,"30.259146","59.945274","Василеостровская",NA,"Камская улица",160,"https://yandex.ru/maps/org/yandeks_lavka/37991689945/"
"313","Азбука вкуса","ул. Нахимова, 5, корп. 1, Санкт-Петербург, Россия",4.3,"30.225553","59.942","Приморская",NA,"Улица Нахимова, 11",160,"https://yandex.ru/maps/org/azbuka_vkusa/18650198303/"
"314","Продукты","просп. Королёва, 42, корп. 3, Санкт-Петербург, Россия",2.9,"30.251376","60.019347","Комендантский проспект",NA,"Долгоозёрная улица",320,"https://yandex.ru/maps/org/produkty/97486607621/"
"315","Вкустер","ул. Новостроек, 87В, посёлок Песочный, Россия",4.2,"30.171003","60.118198","Ленинградская улица, 61",430,"Ленинградская улица, 61",430,"https://yandex.ru/maps/org/vkuster/143965441167/"
"316","Семишагофф","Подольская ул., 38, Санкт-Петербург, Россия",4,"30.326822","59.913791","Технологический институт-1",780,"Планетарий номер 1",400,"https://yandex.ru/maps/org/semishagoff/1307685348/"
"317","Кафе и гастроном","Рюхина ул., 10, Санкт-Петербург, Россия",2.5,"30.25984","59.970673","Крестовский остров",230,"Станция метро Крестовский остров",110,"https://yandex.ru/maps/org/kafe_i_gastronom/139164655463/"
"318","Перекрёсток","Аптекарский просп., 18, Санкт-Петербург, Россия",4.2,"30.317569","59.974911","Петроградская",NA,"Улица Академика Павлова",13,"https://yandex.ru/maps/org/perekryostok/1928543686/"
"319","Мини-Маркет","Большеохтинский просп., 13/4к1, Санкт-Петербург, Россия",2.5,"30.410254","59.949883","Новочеркасская",NA,"Тарасова улица",49,"https://yandex.ru/maps/org/mini_market/209110283184/"
"320","Азбука daily","7-я линия Васильевского острова, 42, Санкт-Петербург, Россия",3.8,"30.27956","59.941973","Василеостровская",130,"Станция метро Василеостровская",160,"https://yandex.ru/maps/org/azbuka_daily/106102424264/"
"321","Лайф&Еда","Приморский просп., 52, корп. 1, Санкт-Петербург, Россия",3,"30.236915","59.982933","Старая Деревня",NA,"Улица Савушкина, 115",620,"https://yandex.ru/maps/org/layf_yeda/109477816185/"
"322","Минимаркет 24","ул. Есенина, 1, корп. 1, Санкт-Петербург, Россия",1.8,"30.330881","60.028321","Озерки",NA,"Северный проспект",310,"https://yandex.ru/maps/org/minimarket_24/243750047410/"
"323","Семишагофф","просп. Пятилеток, 13, корп. 1, Санкт-Петербург, Россия • этаж 1",3.8,"30.454067","59.924289","Проспект Большевиков",NA,"Улица Джона Рида",430,"https://yandex.ru/maps/org/semishagoff/1265612185/"
"324","Продукты 24","ул. Бутлерова, 11, корп. 3, Санкт-Петербург, Россия",2.2,"30.402246","60.005874","Академическая",NA,"Улица Верности",250,"https://yandex.ru/maps/org/produkty_24/20035676698/"
"325","РЦ Перекресток","Россия, Ленинградская область, Всеволожский район, Свердловское городское поселение, промзона Уткина Заводь, 4, корп. 1",3.7,"30.522129","59.865656","Уткина Заводь",NA,"Уткина Заводь",NA,"https://yandex.ru/maps/org/rts_perekrestok/70184325795/"
"326","Продукты","Парашютная ул., 52, Санкт-Петербург, Россия • помещение 44-Н",2.9,"30.246558","60.033928","Комендантский проспект",NA,"Парашютная улица, 54",380,"https://yandex.ru/maps/org/produkty/110474327956/"
"327","Продукты","ул. Софьи Ковалевской, 13, корп. 1, Санкт-Петербург, Россия • этаж цокольный",1.7,"30.416023","60.01648","Академическая",NA,"Северный проспект",270,"https://yandex.ru/maps/org/produkty/59276290267/"
"328","Перекрёсток","просп. Энергетиков, 39/41, Санкт-Петербург, Россия",4.2,"30.441146","59.959905","Ладожская",NA,"Проспект Энергетиков / Шоссе Революции",59,"https://yandex.ru/maps/org/perekryostok/1105651308/"
"329","Перекресток","ул. Марата, 86, Санкт-Петербург, Россия • ТЦ Планета Нептун, 1 этаж, налево от главного входа",4.3,"30.339535","59.919056","Звенигородская",450,"Улица Марата",130,"https://yandex.ru/maps/org/perekrestok/1114983300/"
"330","Продукты","Почтамтская ул., 12, Санкт-Петербург, Россия • этаж цокольный",3.6,"30.302548","59.932153","Адмиралтейская",910,"ДК Связи",190,"https://yandex.ru/maps/org/produkty/199078047592/"
"331","Фасоль","просп. Маршала Блюхера, 9, корп. 2, Санкт-Петербург, Россия • пом. 2-H",2.8,"30.37444","59.978939","Выборгская",NA,"Чугунная улица",600,"https://yandex.ru/maps/org/fasol/238591951657/"
"332","Семишагофф","Средний просп. Васильевского острова, 61, Санкт-Петербург, Россия",3.8,"30.267068","59.939946","Василеостровская",750,"14-я и 15-я линии В.О.",49,"https://yandex.ru/maps/org/semishagoff/56487508306/"
"333","Супер Лента","просп. Большевиков, 7, корп. 2, Санкт-Петербург, Россия",4.3,"30.471138","59.915747","Проспект Большевиков",740,"Универсам Невский",280,"https://yandex.ru/maps/org/super_lenta/50049233008/"
"334","Супер Лента","Левашовский просп., 21, Санкт-Петербург, Россия",4.2,"30.282874","59.966697","Чкаловская",950,"Барочная улица",320,"https://yandex.ru/maps/org/super_lenta/1703980243/"
"335","Семишагофф","Литейный просп., 35, Санкт-Петербург, Россия • этаж цокольный",3.1,"30.34814","59.940618","Чернышевская",NA,"Улица Некрасова",35,"https://yandex.ru/maps/org/semishagoff/1084408387/"
"336","Юниверс","Петровский просп., 18/7, Санкт-Петербург, Россия",3.8,"30.26911","59.959101","Спортивная",NA,"Ремесленная улица",130,"https://yandex.ru/maps/org/yunivers/1124448908/"
"337","Minimarket 24","Невский просп., 98, Санкт-Петербург, Россия",3.1,"30.354904","59.93201","Маяковская",140,"Улица Маяковского",78,"https://yandex.ru/maps/org/minimarket_24/9939960955/"
"338","Семишагофф","ул. Подвойского, 16, корп. 1В, Санкт-Петербург, Россия",3.3,"30.468685","59.911866","Проспект Большевиков",NA,"Улица Подвойского",440,"https://yandex.ru/maps/org/semishagoff/230042958691/"
"339","Азбука вкуса","Вязовая ул., 10, Санкт-Петербург, Россия",4.2,"30.272821","59.967193","Крестовский остров",NA,"Вязовая улица – Гребной клуб Знамя",450,"https://yandex.ru/maps/org/azbuka_vkusa/76104423645/"
"340","Продукты","ш. Революции, 87, Санкт-Петербург, Россия",2.2,"30.481047","59.966831","Улица Коммуны",170,"Улица Коммуны",170,"https://yandex.ru/maps/org/produkty/1732671844/"
"341","Продукты","Садовая ул., 7-9-11, Санкт-Петербург, Россия",3.3,"30.335421","59.935317","Гостиный двор",280,"Итальянская улица",160,"https://yandex.ru/maps/org/produkty/108425404892/"
"342","EUROSPAR","2-я линия Васильевского острова, 39/16, Санкт-Петербург, Россия",4.2,"30.284718","59.944406","Спортивная",460,"1-я и Кадетская линии В.О.",150,"https://yandex.ru/maps/org/eurospar/3052100555/"
"343","Супер Лента","Костромской просп., 24, Санкт-Петербург, Россия",4.1,"30.317478","60.016002","Удельная",210,"Станция метро Удельная",160,"https://yandex.ru/maps/org/super_lenta/37380101197/"
"344","Лэнд","ул. Льва Толстого, 9, Санкт-Петербург, Россия • этаж 1",4.2,"30.31541","59.965283","Петроградская",310,"Станция метро Петроградская",270,"https://yandex.ru/maps/org/lend/1053066037/"
"345","Мини Лента","ул. Маршала Казакова, 72, корп. 1, Санкт-Петербург, Россия",4,"30.17185","59.867448","Проспект Героев",190,"Проспект Героев",190,"https://yandex.ru/maps/org/mini_lenta/166512629400/"
"346","Семишагофф","Разъезжая ул., 34, Санкт-Петербург, Россия",3.8,"30.35047","59.922782","Лиговский проспект",350,"Разъезжая улица",49,"https://yandex.ru/maps/org/semishagoff/61753551572/"
"347","Семишагофф","Новосмоленская наб., 1Ж, Санкт-Петербург, Россия",3.8,"30.220942","59.950525","Приморская",850,"Новосмоленская набережная",270,"https://yandex.ru/maps/org/semishagoff/1271160343/"
"348","Сельскохозяйственный рынок","Полюстровский просп., 45, Санкт-Петербург, Россия • Полюстровский рынок",4.2,"30.388434","59.96959","Выборгская",NA,"Площадь Калинина",330,"https://yandex.ru/maps/org/selskokhozyaystvenny_rynok/1711720803/"
"349","Дикси","ул. Шоссе в Лаврики, 68, корп. 1, Мурино, Россия",3.5,"30.456458","60.05943","Девяткино",2000,"Улица Шоссе в Лаврики, 57",270,"https://yandex.ru/maps/org/diksi/14203867103/"
"350","Продукты В7","Исполкомская ул., 7-9, Санкт-Петербург, Россия",3.7,"30.380218","59.927098","Площадь Александра Невского-1",590,"Конная улица",11,"https://yandex.ru/maps/org/produkty_v7/197384851070/"
"351","Продукты","площадь Труда, 6, Санкт-Петербург, Россия",3.7,"30.293728","59.931374","Адмиралтейская",NA,"Площадь Труда – Центральный Военно-Морской музей",61,"https://yandex.ru/maps/org/produkty/1698290781/"
"352","Семишагофф","ул. Кораблестроителей, 16, корп. 2, Санкт-Петербург, Россия",3.6,"30.214757","59.941158","Приморская",NA,"Гостиница Прибалтийская",160,"https://yandex.ru/maps/org/semishagoff/27509062075/"
"353","РеалЪ","ул. Ушинского, 4, корп. 3, Санкт-Петербург, Россия • этаж цокольный",4,"30.402287","60.030021","Гражданский проспект",NA,"Улица Ушинского",250,"https://yandex.ru/maps/org/real/1349194206/"
"354","Семишагофф","Сапёрный пер., 9, Санкт-Петербург, Россия • этаж цокольный",3.4,"30.357956","59.940883","Чернышевская",660,"Улица Некрасова",250,"https://yandex.ru/maps/org/semishagoff/1272647447/"
"355","Продукты 24 часа","Кременчугская ул., 13, корп. 2, Санкт-Петербург, Россия",3.6,"30.369147","59.921723","Площадь Александра Невского-2",NA,"Больница имени Боткина",500,"https://yandex.ru/maps/org/produkty_24_chasa/30414623249/"
"356","Перекрёсток","Свердловская наб., 60, Санкт-Петербург, Россия • помещение 103",4.3,"30.4086","59.95472","Новочеркасская",NA,"Большая Пороховская улица",300,"https://yandex.ru/maps/org/perekryostok/1393443532/"
"357","Азбука вкуса","Литейный просп., 26, Санкт-Петербург, Россия • этаж 1",4.1,"30.348813","59.942106","Чернышевская",870,"Улица Пестеля",30,"https://yandex.ru/maps/org/azbuka_vkusa/1144861143/"
"358","Перекрёсток","ул. Ефимова, 2, Санкт-Петербург, Россия",4.2,"30.321082","59.926499","Спасская",89,"Станция метро Сенная площадь",170,"https://yandex.ru/maps/org/perekryostok/1011746989/"
"359","Ладоград","просп. Косыгина, 7, корп. 1, Санкт-Петербург, Россия • Ладожская, 3700 м",3.5,"30.468411","59.941767","Ладожская",NA,"Улица Передовиков",73,"https://yandex.ru/maps/org/ladograd/97175322261/"
"360","Продукты","ул. Моисеенко, 43, Санкт-Петербург, Россия",2.1,"30.393737","59.937422","Площадь Александра Невского-1",NA,"Улица Моисеенко",190,"https://yandex.ru/maps/org/produkty/93035515533/"
"361","Prisma","Лиговский просп., 153, Санкт-Петербург, Россия • Т, этаж 0",4.2,"30.347873","59.915058","Обводный канал",120,"Станция метро Обводный канал",75,"https://yandex.ru/maps/org/prisma/10296834823/"
"362","Вкустер","Орлово-Денисовский просп., 19, корп. 1, Санкт-Петербург, Россия",4,"30.268444","60.056223","Озерки",NA,"Орлово-Денисовский проспект",530,"https://yandex.ru/maps/org/vkuster/76014554760/"
"363","РеалЪ","Светлановский просп., 54, корп. 1, Санкт-Петербург, Россия",3.9,"30.393492","60.03487","Гражданский проспект",NA,"Учительская улица",160,"https://yandex.ru/maps/org/real/76886357253/"
"364","Семишагофф","ул. Дыбенко, 13, корп. 1, Санкт-Петербург, Россия",3.8,"30.464179","59.90138","Улица Дыбенко",NA,"Дальневосточный проспект",350,"https://yandex.ru/maps/org/semishagoff/239435488518/"
"365","Продукты","ул. Савушкина, 121, корп. 1, Санкт-Петербург, Россия",2.9,"30.22445","59.986595","Беговая",NA,"ТК Лента",190,"https://yandex.ru/maps/org/produkty/155702635639/"
"366","Продукты","Морская наб., 9, Санкт-Петербург, Россия",2.9,"30.215969","59.937526","Приморская",2000,"Морская набережная, 9",190,"https://yandex.ru/maps/org/produkty/43427708907/"
"367","Хач Маг","ул. Ворошилова, 31, корп. 3, Санкт-Петербург, Россия",2.1,"30.463754","59.931891","Проспект Большевиков",NA,"Улица Кржижановского, 3",190,"https://yandex.ru/maps/org/khach_mag/176801515615/"
"368","Nice food & cup cake","просп. Науки, 21, корп. 1, Санкт-Петербург, Россия",NA,"30.400206","60.012112","Академическая",270,"Станция метро Академическая",150,"https://yandex.ru/maps/org/nice_food_cup_cake/85422856345/"
"369","Prisma","Владимирский просп., 23, Санкт-Петербург, Россия • этаж цокольный",4.1,"30.346669","59.92813","Достоевская",7,"Владимирская площадь",65,"https://yandex.ru/maps/org/prisma/112410857299/"
"370","Азбука вкуса","Большой просп. Петроградской стороны, 58, Санкт-Петербург, Россия • этаж цокольный",4.1,"30.303552","59.96098","Петроградская",800,"Улица Ленина",120,"https://yandex.ru/maps/org/azbuka_vkusa/1139704980/"
"371","Мини Лента","Центральная ул., 3А, д. Энколово, Россия",NA,"30.431544","60.109715","Энколово",190,"Энколово",190,"https://yandex.ru/maps/org/mini_lenta/115307409659/"
"372","Перекрёсток","Думская ул., 4, Санкт-Петербург, Россия",4.1,"30.329149","59.933753","Невский проспект",140,"Станция метро Невский проспект",280,"https://yandex.ru/maps/org/perekryostok/143877542887/"
"373","Перекрёсток","Кирпичный пер., 4, Центральный район, Санкт-Петербург, Россия • этаж цокольный",4.1,"30.315847","59.935795","Адмиралтейская",130,"Невский проспект / Станция метро Адмиралтейская",93,"https://yandex.ru/maps/org/perekryostok/68678940523/"
"374","Продукты","Галерная ул., 42, Санкт-Петербург, Россия",3,"30.287661","59.931235","Василеостровская",NA,"Площадь Труда",280,"https://yandex.ru/maps/org/produkty/37687236883/"
"375","Перекрёсток","9-я линия Васильевского острова, 40/36, Санкт-Петербург, Россия",4.1,"30.27611","59.94189","Василеостровская",190,"Средний проспект В.О.",16,"https://yandex.ru/maps/org/perekryostok/1445185533/"
"376","Продукты","Галерная ул., 19, Санкт-Петербург, Россия",3.6,"30.296322","59.934026","Адмиралтейская",NA,"Площадь Труда",300,"https://yandex.ru/maps/org/produkty/197673930595/"
"377","Продукты 24","Лиговский просп., 65, Санкт-Петербург, Россия",3.3,"30.35815","59.927145","Площадь Восстания",390,"Кузнечный переулок",130,"https://yandex.ru/maps/org/produkty_24/87171561503/"
"378","Лэнд","Новочеркасский просп., 33, корп. 3, Санкт-Петербург, Россия",4.1,"30.407545","59.931245","Новочеркасская",380,"Заневская площадь",300,"https://yandex.ru/maps/org/lend/1098663249/"
"379","Семишагофф","ул. Дыбенко, 42, корп. 3, Санкт-Петербург, Россия",3.5,"30.499086","59.911881","Улица Дыбенко",NA,"Улица Дыбенко",71,"https://yandex.ru/maps/org/semishagoff/1780637853/"
"380","Семишагофф","Австрийская ул., 4, корп. 1, Кудрово, Россия",3.7,"30.510283","59.902841","Улица Дыбенко",NA,"Австрийская улица",210,"https://yandex.ru/maps/org/semishagoff/60011910827/"
"381","Перекрёсток","Кременчугская ул., 11, корп. 3, Санкт-Петербург, Россия",4.1,"30.371986","59.923068","Площадь Александра Невского-2",1000,"Больница имени Боткина",100,"https://yandex.ru/maps/org/perekryostok/66360623078/"
"382","Перекрёсток","Чкаловский просп., 15, Санкт-Петербург, Россия",4,"30.29541","59.962839","Чкаловская",350,"Улица Ленина",340,"https://yandex.ru/maps/org/perekryostok/163058034055/"
"383","Грузинская Лавка","Выборгское ш., 5, корп. 1, Санкт-Петербург, Россия",NA,"30.318931","60.041481","Озерки",650,"Проспект Луначарского",280,"https://yandex.ru/maps/org/gruzinskaya_lavka/50194601859/"
"384","Семишагофф","ул. Подвойского, 34, корп. 6, Санкт-Петербург, Россия",4,"30.486624","59.915711","Улица Дыбенко",NA,"Товарищеский проспект",150,"https://yandex.ru/maps/org/semishagoff/215073233450/"
"385","Rybstory","Новолитовская ул., 10, Санкт-Петербург, Россия • напротив HAND COFFEE, этаж 1",NA,"30.355051","59.98252","Лесная",1000,"Новолитовская улица",290,"https://yandex.ru/maps/org/rybstory/235483915500/"
"386","Семишагофф","Богатырский просп., 8, Санкт-Петербург, Россия",3.8,"30.285453","59.998741","Пионерская",1000,"Серебристый бульвар",190,"https://yandex.ru/maps/org/semishagoff/1777010462/"
"387","Универсам Вместе","Волковский просп., 30, Санкт-Петербург, Россия",3.8,"30.357412","59.896707","Волковская",100,"Станция метро Волковская",99,"https://yandex.ru/maps/org/universam_vmeste/209671540283/"
"388","Продукты","Россия, Санкт-Петербург, Конногвардейский бульвар",3,"30.292428","59.931485","Адмиралтейская",NA,"Площадь Труда – Центральный Военно-Морской музей",120,"https://yandex.ru/maps/org/produkty/198536073315/"
"389","Семишагофф","ул. Седова, 29, Санкт-Петербург, Россия",3.7,"30.417636","59.890676","Елизаровская",910,"Улица Ткачей",130,"https://yandex.ru/maps/org/semishagoff/1318537638/"
"390","Реалъ","просп. Художников, 14, Санкт-Петербург, Россия",3.8,"30.345576","60.03964","Озерки",NA,"Проспект Луначарского",63,"https://yandex.ru/maps/org/real/63683590476/"
"391","Продукты 24","ул. Лидии Зверевой, 9, корп. 1, Санкт-Петербург, Россия",NA,"30.258792","60.039882","Комендантский проспект",NA,"Река Каменка",NA,"https://yandex.ru/maps/org/produkty_24/39659366570/"
"392","РеалЪ","ул. Латышских Стрелков, 13, корп. 1, Санкт-Петербург, Россия",4,"30.460402","59.929141","Проспект Большевиков",NA,"Улица Кржижановского",110,"https://yandex.ru/maps/org/real/105940224006/"
"393","Дикси","Конногвардейский бул., 6, Санкт-Петербург, Россия",3.8,"30.294788","59.931867","Адмиралтейская",NA,"Площадь Труда – Центральный Военно-Морской музей",130,"https://yandex.ru/maps/org/diksi/64474927206/"
"394","Вкустер","Торфяная дорога, 17, корп. 1, Санкт-Петербург, Россия",NA,"30.256844","59.995087","Старая Деревня",740,"Улица Оптиков",150,"https://yandex.ru/maps/org/vkuster/107747172737/"
"395","Мясо свежее","просп. Косыгина, 26, корп. 1, Санкт-Петербург, Россия",NA,"30.486512","59.945626","Ладожская",NA,"Улица Осипенко",150,"https://yandex.ru/maps/org/myaso_svezheye/67771211454/"
"396","Сырный Сомелье","ул. Восстания, 13, Санкт-Петербург, Россия",NA,"30.360478","59.934006","Площадь Восстания",280,"БКЗ Октябрьский",310,"https://yandex.ru/maps/org/syrny_somelye/136602542309/"
"397","Красный дракон","ул. Восстания, 40, Санкт-Петербург, Россия",NA,"30.360407","59.942759","Чернышевская",320,"Станция метро Чернышевская",180,"https://yandex.ru/maps/org/krasny_drakon/91966733745/"
"398","Зоомагазин","Большая Зеленина ул., 26, Санкт-Петербург, Россия",NA,"30.28652","59.963914","Чкаловская",470,"Барочная улица",51,"https://yandex.ru/maps/org/zoomagazin/134402345385/"
"399","Мясо свежее","просп. Пятилеток, 2, Санкт-Петербург, Россия",NA,"30.465195","59.919581","Проспект Большевиков",160,"Станция метро Проспект Большевиков / Улица Коллонтай",160,"https://yandex.ru/maps/org/myaso_svezheye/4555009527/"
"400","Греческая Олива","2-я Советская ул., 7, Санкт-Петербург, Россия • офис 111, этаж 1, БЦ «Сенатор»",NA,"30.365914","59.932437","Площадь Восстания",500,"3-я Советская улица",180,"https://yandex.ru/maps/org/grecheskaya_oliva/219836668221/"
"401","Ruscacao.ru","Конюшенная площадь, 2В, Санкт-Петербург, Россия • этаж 3, помещение 19",NA,"30.325913","59.940141","Гостиный двор",800,"Летний сад",730,"https://yandex.ru/maps/org/ruscacao_ru/21708612985/"
"402","ЗОЖный FISHer","Лыжный пер., 3, Санкт-Петербург, Россия • этаж 1",NA,"30.203164","59.996715","Беговая",NA,"Мебельная улица",250,"https://yandex.ru/maps/org/zozhny_fisher/147743874443/"
"403","ВкусВилл","Парковая ул., 16, Петергоф, Россия",4.4,"29.936073","59.859659","Новый Петергоф",850,"Новый Петергоф",850,"https://yandex.ru/maps/org/vkusvill/130195803132/"
"404","Семишагофф","Ковалёвская ул., 26, Санкт-Петербург, Россия • этаж 1",4.2,"30.511133","59.979492","Станция Ржевка",260,"Станция Ржевка",260,"https://yandex.ru/maps/org/semishagoff/83895865388/"
"405","Семишагофф","Ленская ул., 18, Санкт-Петербург, Россия",4.2,"30.497235","59.940166","Проспект Большевиков",NA,"Ленская улица, 18",22,"https://yandex.ru/maps/org/semishagoff/1304351910/"
"406","Перекрёсток","просп. Наставников, 35, корп. 1, Санкт-Петербург, Россия • этаж цокольный",4.3,"30.48794","59.95051","Ладожская",NA,"Проспект Наставников",84,"https://yandex.ru/maps/org/perekryostok/1511611662/"
"407","Градусы","просп. Энтузиастов, 20, корп. 1, Санкт-Петербург, Россия",4.3,"30.468654","59.946299","Ладожская",NA,"Проспект Энтузиастов",350,"https://yandex.ru/maps/org/gradusy/1268626575/"
"408","Калашный Ряд","Ленинградская ул., 7, Кудрово, Россия",4.7,"30.515307","59.915251","Улица Дыбенко",NA,"Кудрово",370,"https://yandex.ru/maps/org/kalashny_ryad/59256603022/"
"409","Белорусский Дворик","просп. Наставников, 45, корп. 1, Санкт-Петербург, Россия",4.1,"30.482958","59.95474","Ладожская",4000,"Проспект Ударников",21,"https://yandex.ru/maps/org/belorusskiy_dvorik/154547624270/"
"410","Ладоград","Партизанская ул., 11Д, Санкт-Петербург, Россия • Ладожская, 2400 м",4.2,"30.431344","59.945992","Ладожская",NA,"Партизанская улица",470,"https://yandex.ru/maps/org/ladograd/1299139137/"
"411","Gs Market","Новомалиновская дорога, 6А, Санкт-Петербург, Россия",4.2,"30.448883","59.948731","Ладожская",NA,"Бокситогорская улица",570,"https://yandex.ru/maps/org/gs_market/1332497080/"
"412","Goneli Daily","Пискарёвский просп., 1, Санкт-Петербург, Россия",4.3,"30.406657","59.958258","Площадь Ленина",NA,"Шоссе Революции, 3",210,"https://yandex.ru/maps/org/goneli_daily/144516567285/"
"413","Продукты","48, д. Заневка, Россия",4.2,"30.519616","59.937305","Улица Дыбенко",NA,"Заневка – Ладожская улица",10,"https://yandex.ru/maps/org/produkty/45823139150/"
"414","Винлаб","ул. Белышева, 5/6, Санкт-Петербург, Россия",4.4,"30.455727","59.909857","Проспект Большевиков",NA,"Улица Подвойского",580,"https://yandex.ru/maps/org/vinlab/118125719272/"
"415","Выборжец","Центральный пр., 2, Нижняя промзона, д. Старая, Россия",4.3,"30.606955","59.922376","Агрофирма Выборжец",210,"Агрофирма Выборжец",210,"https://yandex.ru/maps/org/vyborzhets/47278263480/"
"416","Продукты из Армении","просп. Наставников, 38, Санкт-Петербург, Россия",4.3,"30.482365","59.953496","Ладожская",NA,"Проспект Ударников",64,"https://yandex.ru/maps/org/produkty_iz_armenii/161933432673/"
"417","Перекрёсток","5А, д. Колтуши, Россия",4.4,"30.654039","59.932973","Колтуши – Торговый центр",78,"Колтуши – Торговый центр",78,"https://yandex.ru/maps/org/perekryostok/158894039840/"
"418","Stopexpress","ул. Химиков, 4, Санкт-Петербург, Россия • АЗС Газпромнефть",4.1,"30.46947","59.966059","Шоссе Революции, 102",290,"Шоссе Революции, 102",290,"https://yandex.ru/maps/org/stopexpress/42791187647/"
"419","Перекрёсток","Индустриальный просп., 31, Санкт-Петербург, Россия",4.3,"30.47369","59.95096","Ладожская",NA,"Индустриальный проспект",130,"https://yandex.ru/maps/org/perekryostok/101818962563/"
"420","Маркет 24","Голландская ул., 10, городской посёлок Янино-1, Россия",4.2,"30.575278","59.951195","ЖК Янила Кантри",230,"ЖК Янила Кантри",230,"https://yandex.ru/maps/org/market_24/96086217347/"
"421","ВкусВилл","ул. Крыленко, 3, корп. 1, Санкт-Петербург, Россия",4.4,"30.4549","59.892911","Улица Дыбенко",NA,"Улица Крыленко",470,"https://yandex.ru/maps/org/vkusvill/81750023092/"
"422","Винлаб","ул. Маршала Тухачевского, 5, корп. 1, Санкт-Петербург, Россия",4.4,"30.431877","59.963029","Ладожская",NA,"Проспект Энергетиков, 46",360,"https://yandex.ru/maps/org/vinlab/28404504248/"
"423","Орехи и сухофрукты","просп. Наставников, 19, Санкт-Петербург, Россия",4.2,"30.491731","59.944372","Проспект Большевиков",NA,"Проспект Наставников",120,"https://yandex.ru/maps/org/orekhi_i_sukhofrukty/222130058093/"
"424","Верный","просп. Энтузиастов, 20, корп. 1, Санкт-Петербург, Россия",4,"30.468623","59.946349","Ладожская",NA,"Проспект Энтузиастов",350,"https://yandex.ru/maps/org/verny/8972387984/"
"425","РеалЪ","Россия, Ленинградская область, Всеволожский район, Заневское городское поселение, городской посёлок Янино-1, жилой комплекс Янинский Каскад • этаж 1",4.3,"30.556606","59.949757","Кольцевая улица",16,"Кольцевая улица",16,"https://yandex.ru/maps/org/real/1325489412/"
"426","Градусы","Столичная ул., 4, корп. 2, Кудрово, Россия",4.2,"30.517989","59.899829","Улица Дыбенко",3000,"Европейский проспект",440,"https://yandex.ru/maps/org/gradusy/145315865267/"
"427","Винлаб","Российский просп., 14, Санкт-Петербург, Россия",4.2,"30.472185","59.929401","Проспект Большевиков",NA,"Российский проспект, 14",230,"https://yandex.ru/maps/org/vinlab/245257628983/"
"428","Перекрёсток","Ленская ул., 12, Санкт-Петербург, Россия",4.3,"30.494358","59.940467","Проспект Большевиков",NA,"Ленская улица, 18",270,"https://yandex.ru/maps/org/perekryostok/155789126947/"
"429","Сироп клуб","2-я Поперечная ул., 15А, Санкт-Петербург, Россия",4.4,"30.552745","59.977877","Ново-Ковалёво – 3-я линия",540,"Ново-Ковалёво – 3-я линия",540,"https://yandex.ru/maps/org/sirop_klub/1864537051/"
"430","Экомаркет Компас Здоровья","Гражданский просп., 76, Санкт-Петербург, Россия",4.4,"30.398128","60.014688","Академическая",300,"Станция метро Академическая",180,"https://yandex.ru/maps/org/ekomarket_kompas_zdorovya/40351012593/"
"431","Ржевка","Ковалёвская ул., 10, Санкт-Петербург, Россия",3.9,"30.507519","59.97698","Ковалёвская улица",110,"Ковалёвская улица",110,"https://yandex.ru/maps/org/rzhevka/1257859122/"
"432","Верный","ул. Марата, 51, Санкт-Петербург, Россия",4.4,"30.350182","59.923399","Лиговский проспект",430,"Разъезжая улица",1,"https://yandex.ru/maps/org/verny/92671030353/"
"433","Винлаб","просп. Металлистов, 100, Санкт-Петербург, Россия",4.5,"30.40469","59.969634","Выборгская",NA,"Проспект Металлистов, 77 / Проспект Металлистов, 110",140,"https://yandex.ru/maps/org/vinlab/193551450164/"
"434","Фасоль","Областная ул., 1, Кудрово, Россия",4.4,"30.50655","59.916526","Улица Дыбенко",2000,"Областная улица, 1",210,"https://yandex.ru/maps/org/fasol/47097186000/"
"435","Продукты из Казахстана","Большая Пороховская ул., 25, Санкт-Петербург, Россия • м. Новочеркасская",4.2,"30.418383","59.953246","Новочеркасская",NA,"Большая Пороховская улица, 21",130,"https://yandex.ru/maps/org/produkty_iz_kazakhstana/27760100208/"
"436","Магнит","ул. Маршала Тухачевского, 41, Санкт-Петербург, Россия",4.1,"30.41738","59.973122","Выборгская",NA,"Улица Маршала Тухачевского",220,"https://yandex.ru/maps/org/magnit/125046831867/"
"437","Красное&Белое","ул. Коллонтай, 23, корп. 1, Санкт-Петербург, Россия",4.4,"30.472547","59.919704","Проспект Большевиков",430,"Станция метро Проспект Большевиков",96,"https://yandex.ru/maps/org/krasnoye_beloye/158779251373/"
"438","РеалЪ","ул. Коммуны, 63, Санкт-Петербург, Россия • этаж 1",3.9,"30.486272","59.964924","2-я Жерновская улица",130,"2-я Жерновская улица",130,"https://yandex.ru/maps/org/real/1234562130/"
"439","DelicatesClub","Якорная ул., 11К, Санкт-Петербург, Россия • вход с улицы Якорная, БЦ ""Парус"", этаж 1",4.3,"30.432326","59.942976","Ладожская",NA,"Якорная улица",200,"https://yandex.ru/maps/org/delicatesclub/1467087169/"
"440","ВкусВилл","Киевская ул., 3, корп. 1А, Санкт-Петербург, Россия",4.5,"30.320899","59.902298","Фрунзенская",600,"Киевская улица",190,"https://yandex.ru/maps/org/vkusvill/21515508497/"
"441","Градусы","Российский просп., 14, Санкт-Петербург, Россия",4,"30.472355","59.929682","Проспект Большевиков",NA,"Российский проспект, 14",260,"https://yandex.ru/maps/org/gradusy/155076532379/"
"442","Светофор","просп. Александровской Фермы, 17, корп. 3, Санкт-Петербург, Россия",4.1,"30.449064","59.860269","Пролетарская",NA,"Улица Седова",170,"https://yandex.ru/maps/org/svetofor/32000017236/"
"443","Продукты","Муринская дорога, 10, корп. 1, Санкт-Петербург, Россия",4,"30.482775","60.003303","Васнецовский проспект",620,"Васнецовский проспект",620,"https://yandex.ru/maps/org/produkty/33010260069/"
"444","Градусы","просп. Обуховской Обороны, 75, Санкт-Петербург, Россия",4.4,"30.425437","59.901588","Елизаровская",770,"Невский рынок",6,"https://yandex.ru/maps/org/gradusy/1241255779/"
"445","Верный","ул. Подвойского, 8, Санкт-Петербург, Россия",4.2,"30.458109","59.909221","Проспект Большевиков",NA,"Улица Подвойского",360,"https://yandex.ru/maps/org/verny/33923876669/"
"446","Продукты","Индустриальный просп., 15, Санкт-Петербург, Россия",4,"30.478372","59.942151","Проспект Большевиков",NA,"Ленская улица",95,"https://yandex.ru/maps/org/produkty/137517866439/"
"447","Перекрёсток","просп. Наставников, 33, корп. 1, Санкт-Петербург, Россия",4.3,"30.48937","59.94911","Ладожская",NA,"Проспект Наставников",250,"https://yandex.ru/maps/org/perekryostok/19033765729/"
"448","Оливия","Невский просп., 111/3, Санкт-Петербург, Россия",4.3,"30.370435","59.928833","Площадь Восстания",660,"Суворовский проспект / Невский проспект",120,"https://yandex.ru/maps/org/oliviya/168081406627/"
"449","Продукты","ул. Коллонтай, 49, Санкт-Петербург, Россия",4.2,"30.500294","59.926349","Проспект Большевиков",NA,"Улица Коллонтай, 47",200,"https://yandex.ru/maps/org/produkty/43411825683/"
"450","Икра и Рыба","Новочеркасский просп., 32, корп. 1, Санкт-Петербург, Россия • этаж 1",4.5,"30.413355","59.927776","Новочеркасская",96,"Станция метро Новочеркасская",180,"https://yandex.ru/maps/org/ikra_i_ryba/136323501869/"
"451","ВкусВилл","Бухарестская ул., 74, Санкт-Петербург, Россия",4.4,"30.381688","59.870867","Международная",200,"Станция метро Международная",110,"https://yandex.ru/maps/org/vkusvill/69693198502/"
"452","Винлаб","Кондратьевский просп., 68, корп. 4, Санкт-Петербург, Россия",4.4,"30.392057","59.984686","Выборгская",NA,"Богословское кладбище",330,"https://yandex.ru/maps/org/vinlab/192436211586/"
"453","Градусы","Загородный просп., 13, Санкт-Петербург, Россия",4.4,"30.341053","59.925688","Достоевская",470,"Пять углов",66,"https://yandex.ru/maps/org/gradusy/1721941039/"
"454","Экомаркет Компас Здоровья","ул. Дыбенко, 27, корп. 1, Санкт-Петербург, Россия",4.4,"30.479999","59.905659","Улица Дыбенко",310,"Станция метро Улица Дыбенко",190,"https://yandex.ru/maps/org/ekomarket_kompas_zdorovya/206921081821/"
"455","Перекресток","Заневский просп., 67, корп. 2, Санкт-Петербург, Россия • корпус А, ТPК Заневский каскад, этаж -2",4.3,"30.437365","59.933197","Ладожская",210,"Станция метро Ладожская / Заневский проспект",84,"https://yandex.ru/maps/org/perekrestok/1110458345/"
"456","Индийские товары","1-я Советская ул., 6, Санкт-Петербург, Россия",4.4,"30.363413","59.931638","Площадь Восстания",320,"Суворовский проспект",300,"https://yandex.ru/maps/org/indiyskiye_tovary/70281469558/"
"457","Продукты Вологды","ул. Софьи Ковалевской, 1, корп. 1, Санкт-Петербург, Россия",4.4,"30.410103","60.011386","Академическая",940,"Улица Софьи Ковалевской",95,"https://yandex.ru/maps/org/produkty_vologdy/179312991909/"
"458","ВкусВилл","Невский просп., 130, Санкт-Петербург, Россия",4.3,"30.366856","59.930516","Площадь Восстания",440,"Суворовский проспект",69,"https://yandex.ru/maps/org/vkusvill/242735308222/"
"459","Верный","ул. Антонова-Овсеенко, 7, Санкт-Петербург, Россия",4.1,"30.461214","59.906398","Улица Дыбенко",NA,"Улица Антонова-Овсеенко",280,"https://yandex.ru/maps/org/verny/1308340002/"
"460","АлтынКум","Разъезжая ул., 35, Санкт-Петербург, Россия • ориентир - вывеска ""Доступная Стоматология""",4.4,"30.351141","59.922203","Лиговский проспект",300,"Разъезжая улица",100,"https://yandex.ru/maps/org/altynkum/1719650297/"
"461","Колхоз","Софийская ул., 29, Санкт-Петербург, Россия",4.5,"30.395836","59.877636","Международная",NA,"Софийская улица",18,"https://yandex.ru/maps/org/kolkhoz/1715857321/"
"462","Верный","Кондратьевский просп., 68, корп. 1, Санкт-Петербург, Россия",4,"30.396901","59.983595","Выборгская",NA,"Бестужевская улица / Музей имени А.И. Маринеско",280,"https://yandex.ru/maps/org/verny/1406430865/"
"463","Градусы","ул. Некрасова, 44, Центральный район, Санкт-Петербург, Россия",4.3,"30.36333","59.938766","Чернышевская",880,"Улица Восстания",140,"https://yandex.ru/maps/org/gradusy/1695610494/"
"464","Семишагофф","Пражская ул., 15, Кудрово, Россия • этаж 1",4.1,"30.52062","59.905307","Улица Дыбенко",NA,"Пражская улица, 14",260,"https://yandex.ru/maps/org/semishagoff/88584477407/"
"465","Фруктовиков","Софийская ул., 60АО, Санкт-Петербург, Россия",4.3,"30.431434","59.859565","Проспект Славы",NA,"Овощной комбинат",720,"https://yandex.ru/maps/org/fruktovikov/1318328351/"
"466","Бункер","Поварской пер., 12, Санкт-Петербург, Россия • помещение 10Н",4.5,"30.352512","59.929292","Маяковская",340,"Улица Марата",380,"https://yandex.ru/maps/org/bunker/1765895979/"
"467","Сырная биржа","наб. реки Фонтанки, 130АГ, Санкт-Петербург, Россия",4.4,"30.303813","59.917826","Технологический институт-2",NA,"Измайловский проспект",440,"https://yandex.ru/maps/org/syrnaya_birzha/66301342629/"
"468","Винлаб","Пражская ул., 4, Кудрово, Россия",4.4,"30.508344","59.910172","Улица Дыбенко",NA,"Набережная улица",240,"https://yandex.ru/maps/org/vinlab/32361051433/"
"469","Народный Фермер","просп. Пятилеток, 8, корп. 1А, Санкт-Петербург, Россия",4.2,"30.459028","59.922369","Проспект Большевиков",630,"Улица Джона Рида",240,"https://yandex.ru/maps/org/narodny_fermer/1694483006/"
"470","Ник","ул. Некрасова, 18, Центральный район, Санкт-Петербург, Россия",4.4,"30.354831","59.938984","Чернышевская",890,"Улица Маяковского",19,"https://yandex.ru/maps/org/nik/1258335547/"
"471","Фермерский магазин","Привокзальная площадь, 1А, корп. 1, Мурино, Россия",4.4,"30.445167","60.050224","Девяткино",140,"Станция метро Девяткино",100,"https://yandex.ru/maps/org/fermerskiy_magazin/1728381722/"
"472","Prisma","наб. реки Мойки, 73, Санкт-Петербург, Россия • эт. цокольный",4.2,"30.314145","59.933531","Адмиралтейская",380,"Большая Морская улица",140,"https://yandex.ru/maps/org/prisma/228322296326/"
"473","Лепка","Европейский просп., 18, корп. 1, Кудрово, Россия",4.2,"30.516044","59.909289","Улица Дыбенко",NA,"Пражская улица, 9",380,"https://yandex.ru/maps/org/lepka/25941826392/"
"474","Оливия","ул. Типанова, 18, Санкт-Петербург, Россия",4.6,"30.33365","59.851932","Московская",850,"Улица Ленсовета",160,"https://yandex.ru/maps/org/oliviya/191861972566/"
"475","Колхоз","Пражская ул., 17, корп. 1, Санкт-Петербург, Россия",4.4,"30.388383","59.874075","Международная",690,"Улица Белы Куна",46,"https://yandex.ru/maps/org/kolkhoz/1709740516/"
"476","Верный","просп. Большевиков, 7, корп. 3, Санкт-Петербург, Россия",3.9,"30.47001","59.915057","Проспект Большевиков",880,"Универсам Невский",450,"https://yandex.ru/maps/org/verny/60066072747/"
"477","Семишагофф","ул. Крыленко, 1, корп. 1, стр. 4, Санкт-Петербург, Россия",4,"30.454003","59.893152","Улица Дыбенко",NA,"Октябрьская набережная, 44",450,"https://yandex.ru/maps/org/semishagoff/73605961590/"
"478","Продукты","Столичная ул., 4, корп. 4, Кудрово, Россия • подъезд 2",4.2,"30.516055","59.89968","Улица Дыбенко",NA,"Европейский проспект",400,"https://yandex.ru/maps/org/produkty/171561687120/"
"479","Экомаркет Компас Здоровья","просп. Большевиков, 9, корп. 1, Санкт-Петербург, Россия • ст.м. Проспект Большевиков",4.2,"30.475443","59.91349","Улица Дыбенко",860,"Улица Подвойского",120,"https://yandex.ru/maps/org/ekomarket_kompas_zdorovya/1436993286/"
"480","Семишагофф","6-я Советская ул., 41, Санкт-Петербург, Россия",4,"30.376801","59.933243","Площадь Восстания",NA,"5-я Советская улица",36,"https://yandex.ru/maps/org/semishagoff/4277673045/"
"481","Premier","Орловская ул., 1, Санкт-Петербург, Россия",4.2,"30.390096","59.951731","Чернышевская",NA,"Смольный собор",370,"https://yandex.ru/maps/org/premier/1686937083/"
"482","Градусы","ул. Седова, 82, Санкт-Петербург, Россия",4.2,"30.435101","59.875727","Ломоносовская",530,"Улица Полярников",80,"https://yandex.ru/maps/org/gradusy/230703573759/"
"483","Либх-3","просп. Солидарности, 3, корп. 3, Санкт-Петербург, Россия",4.1,"30.482852","59.926561","Проспект Большевиков",NA,"Александровская больница",330,"https://yandex.ru/maps/org/libkh_3/1699388297/"
"484","Сыр. club","Кронверкский просп., 63/31, Санкт-Петербург, Россия • этаж 1",4.4,"30.306714","59.954191","Горьковская",800,"Введенская улица",130,"https://yandex.ru/maps/org/syr_club/235578914856/"
"485","Nemo","ул. Рубинштейна, 34, Санкт-Петербург, Россия",4.5,"30.344044","59.9279","Достоевская",220,"Владимирская площадь",240,"https://yandex.ru/maps/org/nemo/76950691768/"
"486","Колхоз","ул. Белы Куна, 16, корп. 4, Санкт-Петербург, Россия",4.4,"30.383551","59.873078","Международная",440,"Станция метро Международная",270,"https://yandex.ru/maps/org/kolkhoz/12865378668/"
"487","Фруктовая лавка","Малая Конюшенная ул., 12, Санкт-Петербург, Россия • этаж цокольный",4.3,"30.325367","59.936515","Гостиный двор",230,"Станция метро Невский проспект",260,"https://yandex.ru/maps/org/fruktovaya_lavka/199329578019/"
"488","Оливия","Московский просп., 127, Санкт-Петербург, Россия",4.4,"30.319111","59.885941","Московские ворота",690,"Московский проспект, 129 / Администрация Московского района",96,"https://yandex.ru/maps/org/oliviya/1180110147/"
"489","Колхоз","Комендантский просп., 17, корп. 1, Санкт-Петербург, Россия",4.4,"30.25585","60.012211","Комендантский проспект",500,"Комендантский проспект, 16",170,"https://yandex.ru/maps/org/kolkhoz/1803754340/"
"490","Сияние севера","ул. Дыбенко, 22, корп. 1, Санкт-Петербург, Россия • метро ""Дыбенко""",4.4,"30.475868","59.905604","Улица Дыбенко",490,"Торговый центр",88,"https://yandex.ru/maps/org/siyaniye_severa/1358217156/"
"491","Торговый дом Республики Коми","8-я Советская ул., 17-19, Санкт-Петербург, Россия",4.3,"30.373626","59.93664","Площадь Восстания",NA,"Суворовский проспект",9,"https://yandex.ru/maps/org/torgovy_dom_respubliki_komi/116635995104/"
"492","Народный Фермер","ул. Крыленко, 21, Санкт-Петербург, Россия",4.3,"30.475732","59.896997","Улица Дыбенко",NA,"Улица Крыленко",92,"https://yandex.ru/maps/org/narodny_fermer/1691902221/"
"493","Семишагофф","Альпийский пер., 30, Санкт-Петербург, Россия",4.3,"30.387615","59.854327","Проспект Славы",550,"Альпийский переулок",460,"https://yandex.ru/maps/org/semishagoff/118568769834/"
"494","Фруктовая лавка","ул. Куйбышева, 33/8, Санкт-Петербург, Россия",4.3,"30.333891","59.957655","Горьковская",NA,"Улица Чапаева",57,"https://yandex.ru/maps/org/fruktovaya_lavka/32422120805/"
"495","Нон стоп","Пражская ул., 4, Кудрово, Россия",4.2,"30.509258","59.909847","Улица Дыбенко",NA,"Пражская улица",200,"https://yandex.ru/maps/org/non_stop/135204451978/"
"496","Винлаб","Гжатская ул., 22, корп. 4, Санкт-Петербург, Россия",4.4,"30.388854","60.013462","Академическая",580,"Проспект Науки, 10",190,"https://yandex.ru/maps/org/vinlab/130889799725/"
"497","Верный","Невская ул., 1/2, микрорайон Южный, Всеволожск, Россия",4.3,"30.653834","59.99061","АЗС",370,"АЗС",370,"https://yandex.ru/maps/org/verny/1153711962/"
"498","Гурме Базар","2-я Советская ул., 10Б, Санкт-Петербург, Россия",4.2,"30.369551","59.931693","Площадь Восстания",680,"3-я Советская улица",140,"https://yandex.ru/maps/org/gurme_bazar/45477178628/"
"499","Градусы","3-я Советская ул., 21/4, Санкт-Петербург, Россия",4.2,"30.375157","59.930289","Площадь Восстания",990,"5-я Советская улица",240,"https://yandex.ru/maps/org/gradusy/168603256479/"
"500","Градусы","Народная ул., 16, Санкт-Петербург, Россия",4.2,"30.464342","59.880979","Ломоносовская",NA,"Дальневосточный проспект",280,"https://yandex.ru/maps/org/gradusy/125977308808/"
